_id,month,town,flat_type,block,street_name,storey_range,floor_area_sqm,flat_model,lease_commence_date,remaining_lease,resale_price,address,postal,latitude,longitude,_ts
197056,2025-05,ANG MO KIO,3 ROOM,417,ANG MO KIO AVE 10,07 TO 09,74.0,New Generation,1979,53 years 04 months,450000.0,417 ANG MO KIO AVE 10,560417,1.36495953274783,103.855197097728,2025-05-02
197057,2025-05,ANG MO KIO,3 ROOM,442,ANG MO KIO AVE 10,07 TO 09,82.0,New Generation,1979,53 years 04 months,525000.0,442 ANG MO KIO AVE 10,560442,1.36565326940253,103.855232195496,2025-05-02
197350,2025-05,BEDOK,3 ROOM,423,BEDOK NTH AVE 1,04 TO 06,67.0,New Generation,1979,52 years 10 months,430000.0,423 BEDOK NTH AVE 1,460423,1.32797614118511,103.927565110763,2025-05-02
197378,2025-05,BEDOK,3 ROOM,75,BEDOK NTH RD,10 TO 12,59.0,Improved,1978,51 years 09 months,390000.0,75 BEDOK NTH RD,460075,1.32791477933184,103.942144427101,2025-05-02
197379,2025-05,BEDOK,3 ROOM,431A,BEDOK NTH RD,07 TO 09,69.0,Model A,2021,95 years 01 month,677000.0,431A BEDOK NTH RD,461431,1.32905755230773,103.932883464646,2025-05-02
197390,2025-05,BEDOK,3 ROOM,201,BEDOK NTH ST 1,10 TO 12,88.0,New Generation,1979,53 years 04 months,518000.0,201 BEDOK NTH ST 1,460201,1.3260876838722,103.928232502969,2025-05-02
197426,2025-05,BEDOK,3 ROOM,554,BEDOK NTH ST 3,07 TO 09,68.0,New Generation,1980,54 years 02 months,430000.0,554 BEDOK NTH ST 3,460554,1.33262715051315,103.928172121608,2025-05-02
197606,2025-05,BEDOK,4 ROOM,5,BEDOK STH AVE 2,07 TO 09,82.0,Improved,1976,49 years 09 months,468888.0,5 BEDOK STH AVE 2,460005,1.32219157915726,103.934399264462,2025-05-02
197778,2025-05,BISHAN,4 ROOM,243,BISHAN ST 22,04 TO 06,105.0,Model A,1992,66 years 04 months,808888.0,243 BISHAN ST 22,570243,1.36108498,103.844635646145,2025-05-02
197804,2025-05,BISHAN,5 ROOM,144,BISHAN ST 12,01 TO 03,128.0,Improved,1988,62 years 04 months,915000.0,144 BISHAN ST 12,570144,1.34594126815113,103.853322120107,2025-05-02
197841,2025-05,BISHAN,MULTI-GENERATION,137,BISHAN ST 12,10 TO 12,165.0,Multi Generation,1987,61 years 02 months,1388888.0,137 BISHAN ST 12,570137,1.34444616933874,103.851797492955,2025-05-02
197854,2025-05,BUKIT BATOK,2 ROOM,451A,BT BATOK WEST AVE 6,04 TO 06,47.0,2-room,2019,92 years 11 months,365000.0,451A BT BATOK WEST AVE 6,651451,1.35304899382254,103.742932562787,2025-05-02
198009,2025-05,BUKIT BATOK,4 ROOM,242,BT BATOK EAST AVE 5,04 TO 06,91.0,New Generation,1985,59 years 08 months,520000.0,242 BT BATOK EAST AVE 5,650242,1.35095950808957,103.756233418128,2025-05-02
198034,2025-05,BUKIT BATOK,4 ROOM,219,BT BATOK ST 21,07 TO 09,99.0,New Generation,1985,58 years 11 months,600000.0,219 BT BATOK ST 21,650219,1.34720729813155,103.754999726682,2025-05-02
198175,2025-05,BUKIT BATOK,4 ROOM,439A,BT BATOK WEST AVE 8,01 TO 03,93.0,Model A,2020,93 years 10 months,630000.0,439A BT BATOK WEST AVE 8,651439,1.35682160436271,103.740330543468,2025-05-02
198176,2025-05,BUKIT BATOK,4 ROOM,443D,BT BATOK WEST AVE 8,01 TO 03,92.0,Model A,2019,92 years 11 months,630000.0,443D BT BATOK WEST AVE 8,654443,1.35559341715517,103.737118247972,2025-05-02
198343,2025-05,BUKIT MERAH,3 ROOM,2,EVERTON PK,04 TO 06,72.0,New Generation,1980,54 years 07 months,570000.0,2 EVERTON PK,81002,1.27741630337522,103.839330846341,2025-05-02
198594,2025-05,BUKIT MERAH,4 ROOM,93B,TELOK BLANGAH ST 31,07 TO 09,93.0,Model A,2018,92 years 08 months,950000.0,93B TELOK BLANGAH ST 31,102093,1.27535722008159,103.807977257969,2025-05-02
198753,2025-05,BUKIT PANJANG,4 ROOM,176,LOMPANG RD,13 TO 15,101.0,Model A,1997,71 years 06 months,730000.0,176 LOMPANG RD,670176,1.37924529892586,103.765881569885,2025-05-02
198763,2025-05,BUKIT PANJANG,4 ROOM,168,PETIR RD,16 TO 18,102.0,Model A,1998,72 years 04 months,790000.0,168 PETIR RD,670168,1.37758285592609,103.764402344565,2025-05-02
198837,2025-05,BUKIT PANJANG,5 ROOM,440,FAJAR RD,07 TO 09,120.0,Improved,1997,71 years 07 months,663000.0,440 FAJAR RD,670440,1.38368429456113,103.770076985518,2025-05-02
198965,2025-05,CENTRAL AREA,3 ROOM,2,TG PAGAR PLAZA,16 TO 18,70.0,Improved,1977,50 years 10 months,640000.0,2 TG PAGAR PLAZA,82002,1.27523683085708,103.842605335418,2025-05-02
199058,2025-05,CHOA CHU KANG,4 ROOM,409,CHOA CHU KANG AVE 3,04 TO 06,106.0,Model A,1992,66 years 03 months,517000.0,409 CHOA CHU KANG AVE 3,680409,1.38112967018954,103.741877152961,2025-05-02
199229,2025-05,CHOA CHU KANG,5 ROOM,810B,CHOA CHU KANG AVE 7,16 TO 18,113.0,Improved,2017,91 years 07 months,743888.0,810B CHOA CHU KANG AVE 7,682810,1.37421764851385,103.745467656318,2025-05-02
199257,2025-05,CHOA CHU KANG,5 ROOM,681,CHOA CHU KANG CRES,07 TO 09,126.0,Premium Apartment,1999,73 years 06 months,650000.0,681 CHOA CHU KANG CRES,680681,1.40304334411889,103.74558981715,2025-05-02
199258,2025-05,CHOA CHU KANG,5 ROOM,684A,CHOA CHU KANG CRES,07 TO 09,110.0,Improved,2002,76 years 05 months,570000.0,684A CHOA CHU KANG CRES,681684,1.40400608389802,103.746767050296,2025-05-02
199308,2025-05,CHOA CHU KANG,5 ROOM,801A,KEAT HONG CL,10 TO 12,113.0,Improved,2018,91 years 10 months,688000.0,801A KEAT HONG CL,681801,1.37584281436757,103.743195889916,2025-05-02
199341,2025-05,CHOA CHU KANG,EXECUTIVE,556,CHOA CHU KANG NTH 6,07 TO 09,149.0,Apartment,1996,69 years 10 months,848000.0,556 CHOA CHU KANG NTH 6,680556,1.39577216416704,103.743789183815,2025-05-02
199504,2025-05,CLEMENTI,4 ROOM,512,WEST COAST DR,01 TO 03,91.0,New Generation,1978,51 years 09 months,485000.0,512 WEST COAST DR,120512,1.30995900089387,103.760210268491,2025-05-02
199608,2025-05,GEYLANG,3 ROOM,44,CIRCUIT RD,01 TO 03,52.0,Standard,1971,44 years 09 months,335000.0,44 CIRCUIT RD,370044,1.32665458025622,103.886118963317,2025-05-02
199632,2025-05,GEYLANG,3 ROOM,4,HAIG RD,01 TO 03,76.0,Improved,1976,50 years 03 months,451888.0,4 HAIG RD,430004,1.31210124370815,103.897187082666,2025-05-02
199645,2025-05,GEYLANG,3 ROOM,10,PINE CL,04 TO 06,82.0,New Generation,1981,55 years 03 months,568000.0,10 PINE CL,391010,1.30915239429834,103.882242524292,2025-05-02
199690,2025-05,GEYLANG,4 ROOM,32,EUNOS CRES,10 TO 12,90.0,Model A,2007,80 years 09 months,988000.0,32 EUNOS CRES,400032,1.32029253511763,103.901355995305,2025-05-02
199691,2025-05,GEYLANG,4 ROOM,36,EUNOS CRES,16 TO 18,90.0,Model A,2006,80 years 09 months,950000.0,36 EUNOS CRES,400036,1.32117164370394,103.901772831996,2025-05-02
199766,2025-05,HOUGANG,2 ROOM,994B,BUANGKOK LINK,13 TO 15,47.0,2-room,2021,94 years 09 months,395000.0,994B BUANGKOK LINK,532994,1.38577163049659,103.883484818974,2025-05-02
199928,2025-05,HOUGANG,4 ROOM,994C,BUANGKOK LINK,13 TO 15,93.0,Model A,2021,94 years 09 months,690000.0,994C BUANGKOK LINK,536994,1.38545472814646,103.882985586929,2025-05-02
199973,2025-05,HOUGANG,4 ROOM,352,HOUGANG AVE 7,04 TO 06,93.0,New Generation,1986,59 years 10 months,548888.0,352 HOUGANG AVE 7,530352,1.37210569373169,103.899099276298,2025-05-02
200057,2025-05,HOUGANG,4 ROOM,471A,UPP SERANGOON CRES,04 TO 06,92.0,Model A,2015,89 years 01 month,655000.0,471A UPP SERANGOON CRES,531471,1.37814544014756,103.901767342056,2025-05-02
200079,2025-05,HOUGANG,5 ROOM,111,HOUGANG AVE 1,01 TO 03,137.0,Improved-Maisonette,1983,56 years 11 months,960000.0,111 HOUGANG AVE 1,530111,1.35498576469516,103.888557459754,2025-05-02
200216,2025-05,JURONG EAST,3 ROOM,304,JURONG EAST ST 32,04 TO 06,67.0,New Generation,1983,57 years 05 months,395000.0,304 JURONG EAST ST 32,600304,1.3451446878869,103.734750459542,2025-05-02
200395,2025-05,JURONG WEST,3 ROOM,215,BOON LAY PL,07 TO 09,66.0,Improved,1974,48 years 06 months,352000.0,215 BOON LAY PL,640215,1.34868437470614,103.712359844107,2025-05-02
200398,2025-05,JURONG WEST,3 ROOM,150A,CORPORATION DR,04 TO 06,68.0,Model A,2019,93 years 01 month,485000.0,150A CORPORATION DR,611150,1.32675346321679,103.722161196654,2025-05-02
200433,2025-05,JURONG WEST,3 ROOM,464,JURONG WEST ST 41,04 TO 06,73.0,Model A,1984,58 years 02 months,400000.0,464 JURONG WEST ST 41,640464,1.35030062908903,103.722313913056,2025-05-02
200512,2025-05,JURONG WEST,4 ROOM,274D,JURONG WEST AVE 3,07 TO 09,90.0,Model A,2001,75 years 08 months,526000.0,274D JURONG WEST AVE 3,644274,1.35219891849799,103.704379929183,2025-05-02
200807,2025-05,JURONG WEST,5 ROOM,765,JURONG WEST ST 74,07 TO 09,123.0,Improved,1996,70 years 03 months,660000.0,765 JURONG WEST ST 74,640765,1.35008225208999,103.69839455351,2025-05-02
200842,2025-05,JURONG WEST,5 ROOM,989A,JURONG WEST ST 93,10 TO 12,110.0,Premium Apartment,2008,82 years 04 months,630000.0,989A JURONG WEST ST 93,641989,1.33597335245081,103.694567800488,2025-05-02
200864,2025-05,JURONG WEST,EXECUTIVE,274A,JURONG WEST AVE 3,13 TO 15,126.0,Apartment,2001,75 years 08 months,675000.0,274A JURONG WEST AVE 3,641274,1.35226505301544,103.703603969219,2025-05-02
200915,2025-05,KALLANG/WHAMPOA,2 ROOM,7,JLN BATU,01 TO 03,50.0,Standard,1970,44 years 02 months,283000.0,7 JLN BATU,431007,1.30237002555566,103.88359641393,2025-05-02
201018,2025-05,KALLANG/WHAMPOA,3 ROOM,98,WHAMPOA DR,10 TO 12,65.0,Improved,1974,47 years 11 months,375000.0,98 WHAMPOA DR,320098,1.32158068709129,103.854150953187,2025-05-02
201150,2025-05,KALLANG/WHAMPOA,5 ROOM,9,BOON KENG RD,22 TO 24,119.0,DBSS,2011,84 years 10 months,1490000.0,9 BOON KENG RD,330009,1.31605118149851,103.861218698544,2025-05-02
201173,2025-05,KALLANG/WHAMPOA,5 ROOM,38,UPP BOON KENG RD,07 TO 09,114.0,Standard,1976,50 years 04 months,688000.0,38 UPP BOON KENG RD,380038,1.31804081085615,103.874222824064,2025-05-02
201306,2025-05,PASIR RIS,4 ROOM,524B,PASIR RIS ST 51,07 TO 09,93.0,Model A,2015,89 years 03 months,775000.0,524B PASIR RIS ST 51,512524,1.37093178459665,103.947562573809,2025-05-02
201546,2025-05,PUNGGOL,4 ROOM,684D,EDGEDALE PLAINS,07 TO 09,93.0,Premium Apartment,2018,92 years 04 months,725000.0,684D EDGEDALE PLAINS,824684,1.40365173571937,103.914094838628,2025-05-02
201635,2025-05,PUNGGOL,4 ROOM,618A,PUNGGOL DR,04 TO 06,93.0,Premium Apartment,2013,87 years 05 months,670000.0,618A PUNGGOL DR,821618,1.40112635117272,103.912462739151,2025-05-02
201697,2025-05,PUNGGOL,4 ROOM,274B,PUNGGOL PL,10 TO 12,94.0,Premium Apartment,2013,87 years 03 months,778000.0,274B PUNGGOL PL,822274,1.40311625745814,103.902287366854,2025-05-02
201734,2025-05,PUNGGOL,4 ROOM,272C,PUNGGOL WALK,13 TO 15,93.0,Premium Apartment,2014,88 years 01 month,736000.0,272C PUNGGOL WALK,823272,1.40285706492636,103.900067172851,2025-05-02
201797,2025-05,PUNGGOL,5 ROOM,684B,EDGEDALE PLAINS,13 TO 15,113.0,Premium Apartment,2018,92 years 04 months,875000.0,684B EDGEDALE PLAINS,822684,1.40302713233008,103.915005575569,2025-05-02
202003,2025-05,QUEENSTOWN,3 ROOM,9,HOLLAND AVE,16 TO 18,65.0,Improved,1974,48 years 01 month,568000.0,9 HOLLAND AVE,272009,1.3075559256341,103.794443576453,2025-05-02
202036,2025-05,QUEENSTOWN,3 ROOM,170,STIRLING RD,13 TO 15,60.0,Improved,1970,44 years 03 months,410000.0,170 STIRLING RD,140170,1.29090918077067,103.803107626115,2025-05-02
202189,2025-05,SEMBAWANG,2 ROOM,103A,CANBERRA ST,04 TO 06,47.0,2-room,2020,94 years 08 months,368000.0,103A CANBERRA ST,751103,1.45103006132424,103.830534008712,2025-05-02
202198,2025-05,SEMBAWANG,2 ROOM,463A,SEMBAWANG DR,07 TO 09,46.0,Model A,2015,89 years 02 months,362500.0,463A SEMBAWANG DR,751463,1.45559843682203,103.814045150572,2025-05-02
203006,2025-05,SENGKANG,4 ROOM,439C,SENGKANG WEST AVE,10 TO 12,94.0,Model A,2011,84 years 11 months,678000.0,439C SENGKANG WEST AVE,793439,1.39221691150855,103.878650536649,2025-05-02
203086,2025-05,SENGKANG,5 ROOM,326A,ANCHORVALE RD,16 TO 18,112.0,Premium Apartment,2015,89 years,878000.0,326A ANCHORVALE RD,541326,1.39491417297588,103.88800013779,2025-05-02
203088,2025-05,SENGKANG,5 ROOM,331A,ANCHORVALE ST,10 TO 12,112.0,Improved,2015,89 years 04 months,810000.0,331A ANCHORVALE ST,541331,1.39594975733852,103.890467920512,2025-05-02
203163,2025-05,SENGKANG,5 ROOM,408B,FERNVALE RD,10 TO 12,115.0,Premium Apartment,2004,78 years 04 months,670000.0,408B FERNVALE RD,792408,1.3890042738829,103.876069073536,2025-05-02
203164,2025-05,SENGKANG,5 ROOM,409A,FERNVALE RD,25 TO 27,115.0,Premium Apartment,2004,78 years 08 months,695000.0,409A FERNVALE RD,791409,1.38906494156565,103.877151925492,2025-05-02
203287,2025-05,SERANGOON,3 ROOM,3,LOR LEW LIAN,13 TO 15,73.0,Improved,1978,52 years 01 month,488888.0,3 LOR LEW LIAN,531003,1.3504753599142,103.876132957211,2025-05-02
203423,2025-05,SERANGOON,EXECUTIVE,506,SERANGOON NTH AVE 4,07 TO 09,146.0,Apartment,1992,66 years 07 months,1000888.0,506 SERANGOON NTH AVE 4,550506,1.37281631901907,103.876339684598,2025-05-02
203438,2025-05,TAMPINES,3 ROOM,868C,TAMPINES AVE 8,04 TO 06,67.0,Model A,2015,89 years 02 months,540000.0,868C TAMPINES AVE 8,523868,1.35585780112316,103.933334387633,2025-05-02
203503,2025-05,TAMPINES,3 ROOM,277,TAMPINES ST 22,07 TO 09,74.0,Model A,1985,58 years 10 months,468000.0,277 TAMPINES ST 22,520277,1.34727819641372,103.951193517105,2025-05-02
203531,2025-05,TAMPINES,3 ROOM,433,TAMPINES ST 43,04 TO 06,64.0,Simplified,1987,61 years 05 months,465000.0,433 TAMPINES ST 43,520433,1.35904050139779,103.951132576329,2025-05-02
203634,2025-05,TAMPINES,4 ROOM,524B,TAMPINES CTRL 7,07 TO 09,93.0,Model A,2015,89 years 04 months,768000.0,524B TAMPINES CTRL 7,522524,1.35895813519086,103.938911100785,2025-05-02
203641,2025-05,TAMPINES,4 ROOM,519A,TAMPINES CTRL 8,13 TO 15,84.0,DBSS,2014,88 years 02 months,888000.0,519A TAMPINES CTRL 8,521519,1.35727594461393,103.940381600354,2025-05-02
203750,2025-05,TAMPINES,4 ROOM,164,TAMPINES ST 12,07 TO 09,103.0,Model A,1984,58 years 07 months,653000.0,164 TAMPINES ST 12,521164,1.3496215142655,103.946000691097,2025-05-02
203912,2025-05,TAMPINES,5 ROOM,496D,TAMPINES AVE 9,04 TO 06,127.0,Improved,1993,67 years 03 months,740000.0,496D TAMPINES AVE 9,520496,1.36149819401054,103.950121108747,2025-05-02
203981,2025-05,TAMPINES,5 ROOM,614A,TAMPINES NTH DR 1,13 TO 15,113.0,Improved,2021,94 years 09 months,970000.0,614A TAMPINES NTH DR 1,521614,1.36489478768898,103.936692419369,2025-05-02
203982,2025-05,TAMPINES,5 ROOM,614B,TAMPINES NTH DR 1,13 TO 15,113.0,Improved,2021,94 years 10 months,938888.0,614B TAMPINES NTH DR 1,522614,1.36483672442073,103.935795400387,2025-05-02
204049,2025-05,TAMPINES,5 ROOM,710,TAMPINES ST 71,04 TO 06,119.0,Improved,1997,71 years 02 months,788000.0,710 TAMPINES ST 71,520710,1.35892431398391,103.937644661626,2025-05-02
204061,2025-05,TAMPINES,5 ROOM,865,TAMPINES ST 83,10 TO 12,127.0,Improved,1989,63 years,850000.0,865 TAMPINES ST 83,520865,1.35389242521044,103.934251462733,2025-05-02
204119,2025-05,TAMPINES,EXECUTIVE,874A,TAMPINES ST 84,07 TO 09,146.0,Maisonette,1989,62 years 10 months,988888.0,874A TAMPINES ST 84,521874,1.35309006288582,103.932242864561,2025-05-02
204179,2025-05,TOA PAYOH,3 ROOM,157,LOR 1 TOA PAYOH,07 TO 09,67.0,Improved,1971,45 years 03 months,416888.0,157 LOR 1 TOA PAYOH,310157,1.33220626321248,103.845452861739,2025-05-02
204180,2025-05,TOA PAYOH,3 ROOM,168,LOR 1 TOA PAYOH,07 TO 09,76.0,Improved,1972,46 years 03 months,455000.0,168 LOR 1 TOA PAYOH,310168,1.33176643070234,103.843423249665,2025-05-02
204205,2025-05,TOA PAYOH,3 ROOM,47,LOR 6 TOA PAYOH,04 TO 06,58.0,Standard,1969,42 years 10 months,333000.0,47 LOR 6 TOA PAYOH,310047,1.33691029763166,103.854030352751,2025-05-02
204375,2025-05,TOA PAYOH,4 ROOM,79E,TOA PAYOH CTRL,25 TO 27,91.0,Model A,2009,83 years,990000.0,79E TOA PAYOH CTRL,315079,1.33472713626235,103.849822984337,2025-05-02
204413,2025-05,TOA PAYOH,5 ROOM,171,LOR 1 TOA PAYOH,13 TO 15,123.0,Improved,1995,69 years,980000.0,171 LOR 1 TOA PAYOH,310171,1.33068534910935,103.842659017362,2025-05-02
204510,2025-05,WOODLANDS,3 ROOM,15,MARSILING LANE,04 TO 06,65.0,Improved,1976,49 years 09 months,345000.0,15 MARSILING LANE,730015,1.44192560223859,103.778158395764,2025-05-02
204607,2025-05,WOODLANDS,4 ROOM,614,WOODLANDS AVE 4,04 TO 06,101.0,Model A,1998,72 years 04 months,540000.0,614 WOODLANDS AVE 4,730614,1.43445536966004,103.79641239237,2025-05-02
204872,2025-05,WOODLANDS,5 ROOM,137,MARSILING RD,04 TO 06,121.0,Improved,1985,59 years 05 months,580000.0,137 MARSILING RD,730137,1.43845614747139,103.777081265974,2025-05-02
204875,2025-05,WOODLANDS,5 ROOM,339,WOODLANDS AVE 1,10 TO 12,136.0,Model A,1995,69 years 03 months,740000.0,339 WOODLANDS AVE 1,730339,1.43100437721898,103.781602327403,2025-05-02
204997,2025-05,WOODLANDS,5 ROOM,687A,WOODLANDS DR 75,07 TO 09,114.0,Premium Apartment,2003,76 years 09 months,645000.0,687A WOODLANDS DR 75,731687,1.44100430753825,103.807223345894,2025-05-02
205034,2025-05,WOODLANDS,5 ROOM,412,WOODLANDS ST 41,10 TO 12,137.0,Model A,1995,69 years 04 months,710000.0,412 WOODLANDS ST 41,730412,1.42814010815124,103.772821890569,2025-05-02
205135,2025-05,YISHUN,3 ROOM,424A,YISHUN AVE 11,01 TO 03,67.0,Model A,2015,89 years 08 months,460000.0,424A YISHUN AVE 11,761424,1.42322643296322,103.848049317931,2025-05-02
205311,2025-05,YISHUN,3 ROOM,825,YISHUN ST 81,04 TO 06,73.0,Model A,1988,62 years 06 months,490000.0,825 YISHUN ST 81,760825,1.41443858649132,103.832773733482,2025-05-02
205360,2025-05,YISHUN,4 ROOM,425,YISHUN AVE 11,04 TO 06,104.0,Model A,1988,62 years 04 months,550000.0,425 YISHUN AVE 11,760425,1.42242242128485,103.848326515766,2025-05-02
205421,2025-05,YISHUN,4 ROOM,389,YISHUN AVE 6,01 TO 03,104.0,Model A,1988,62 years 02 months,540000.0,389 YISHUN AVE 6,760389,1.42956999096502,103.848020471141,2025-05-02
205622,2025-05,YISHUN,5 ROOM,673A,YISHUN AVE 4,04 TO 06,112.0,Improved,2018,92 years 07 months,730000.0,673A YISHUN AVE 4,761673,1.41999916145463,103.841999102785,2025-05-02
205629,2025-05,YISHUN,5 ROOM,315C,YISHUN AVE 9,01 TO 03,112.0,Improved,2015,89 years 06 months,710888.0,315C YISHUN AVE 9,763315,1.43236735703997,103.843300870773,2025-05-02
197006,2025-05,ANG MO KIO,3 ROOM,218,ANG MO KIO AVE 1,04 TO 06,67.0,New Generation,1976,50 years 01 month,420000.0,218 ANG MO KIO AVE 1,560218,1.36511908595886,103.841742478489,2025-05-05
197163,2025-05,ANG MO KIO,3 ROOM,180,ANG MO KIO AVE 5,07 TO 09,68.0,New Generation,1981,55 years,433000.0,180 ANG MO KIO AVE 5,560180,1.37667706463381,103.838361037555,2025-05-05
197167,2025-05,ANG MO KIO,3 ROOM,635,ANG MO KIO AVE 6,07 TO 09,68.0,New Generation,1980,54 years 05 months,425000.0,635 ANG MO KIO AVE 6,560635,1.38076896104696,103.842378423538,2025-05-05
197220,2025-05,ANG MO KIO,4 ROOM,415,ANG MO KIO AVE 10,04 TO 06,92.0,New Generation,1979,53 years 04 months,530000.0,415 ANG MO KIO AVE 10,560415,1.36445335577543,103.853655233672,2025-05-05
197234,2025-05,ANG MO KIO,4 ROOM,573,ANG MO KIO AVE 3,10 TO 12,92.0,New Generation,1979,53 years 01 month,590888.0,573 ANG MO KIO AVE 3,560573,1.37056143999067,103.854823102785,2025-05-05
197432,2025-05,BEDOK,3 ROOM,535,BEDOK NTH ST 3,07 TO 09,60.0,Improved,1986,59 years 09 months,400000.0,535 BEDOK NTH ST 3,460535,1.33270278688381,103.923456730636,2025-05-05
197546,2025-05,BEDOK,4 ROOM,115,BEDOK NTH RD,04 TO 06,98.0,New Generation,1978,52 years 01 month,560000.0,115 BEDOK NTH RD,460115,1.33143368026417,103.936865404278,2025-05-05
197558,2025-05,BEDOK,4 ROOM,543,BEDOK NTH ST 3,04 TO 06,92.0,New Generation,1980,54 years 02 months,511000.0,543 BEDOK NTH ST 3,460543,1.33033659434823,103.923223544145,2025-05-05
197616,2025-05,BEDOK,4 ROOM,156,BEDOK STH AVE 3,07 TO 09,84.0,Simplified,1985,59 years 08 months,600000.0,156 BEDOK STH AVE 3,460156,1.31828663769919,103.945481750941,2025-05-05
197690,2025-05,BEDOK,5 ROOM,611,BEDOK RESERVOIR RD,07 TO 09,121.0,Improved,1993,66 years 11 months,700000.0,611 BEDOK RESERVOIR RD,470611,1.33101555033747,103.915165583026,2025-05-05
197696,2025-05,BEDOK,5 ROOM,765,BEDOK RESERVOIR VIEW,13 TO 15,115.0,Premium Apartment,2000,74 years 08 months,862888.0,765 BEDOK RESERVOIR VIEW,470765,1.33596106828604,103.935990113555,2025-05-05
197701,2025-05,BEDOK,5 ROOM,171,BEDOK STH RD,10 TO 12,122.0,Improved,1985,59 years 07 months,780000.0,171 BEDOK STH RD,460171,1.32089676770365,103.945428720471,2025-05-05
197774,2025-05,BISHAN,4 ROOM,104,BISHAN ST 12,04 TO 06,84.0,Simplified,1985,59 years 06 months,640000.0,104 BISHAN ST 12,570104,1.3456750211197,103.84803290576,2025-05-05
197780,2025-05,BISHAN,4 ROOM,175,BISHAN ST 13,01 TO 03,83.0,Simplified,1987,61 years 05 months,605000.0,175 BISHAN ST 13,570175,1.34896062200566,103.853736013686,2025-05-05
198004,2025-05,BUKIT BATOK,3 ROOM,169,BT BATOK WEST AVE 8,10 TO 12,73.0,Model A,1984,58 years 06 months,448000.0,169 BT BATOK WEST AVE 8,650169,1.34660733553492,103.740909286964,2025-05-05
198005,2025-05,BUKIT BATOK,3 ROOM,438B,BT BATOK WEST AVE 8,01 TO 03,68.0,Model A,2020,93 years 10 months,470000.0,438B BT BATOK WEST AVE 8,652438,1.35788978585234,103.740481164284,2025-05-05
198006,2025-05,BUKIT BATOK,3 ROOM,441A,BT BATOK WEST AVE 8,13 TO 15,67.0,Model A,2019,92 years 11 months,538000.0,441A BT BATOK WEST AVE 8,651441,1.35610548541132,103.739002965384,2025-05-05
198021,2025-05,BUKIT BATOK,4 ROOM,260,BT BATOK EAST AVE 4,10 TO 12,107.0,Model A,1985,59 years 02 months,540000.0,260 BT BATOK EAST AVE 4,650260,1.35091259231107,103.759021061327,2025-05-05
198022,2025-05,BUKIT BATOK,4 ROOM,267,BT BATOK EAST AVE 4,04 TO 06,84.0,Simplified,1987,60 years 09 months,532888.0,267 BT BATOK EAST AVE 4,650267,1.34880956575502,103.759892612835,2025-05-05
198029,2025-05,BUKIT BATOK,4 ROOM,249,BT BATOK EAST AVE 5,04 TO 06,107.0,Model A,1985,58 years 11 months,563000.0,249 BT BATOK EAST AVE 5,650249,1.35061655709758,103.756564159717,2025-05-05
198039,2025-05,BUKIT BATOK,4 ROOM,145,BT BATOK ST 11,01 TO 03,93.0,New Generation,1984,58 years 02 months,505000.0,145 BT BATOK ST 11,650145,1.34997305498668,103.743724852615,2025-05-05
198155,2025-05,BUKIT BATOK,4 ROOM,190,BT BATOK WEST AVE 6,01 TO 03,100.0,Model A,1997,71 years 03 months,600000.0,190 BT BATOK WEST AVE 6,650190,1.3453856199951,103.746045480153,2025-05-05
198199,2025-05,BUKIT BATOK,4 ROOM,440B,BT BATOK WEST AVE 8,13 TO 15,92.0,Model A,2019,92 years 11 months,680000.0,440B BT BATOK WEST AVE 8,652440,1.35513845452594,103.738218129089,2025-05-05
198309,2025-05,BUKIT BATOK,5 ROOM,443A,BT BATOK WEST AVE 8,10 TO 12,112.0,Improved,2019,92 years 11 months,848000.0,443A BT BATOK WEST AVE 8,651443,1.35653277301058,103.737760469396,2025-05-05
198520,2025-05,BUKIT MERAH,4 ROOM,102,HENDERSON CRES,13 TO 15,80.0,Standard,1970,44 years 03 months,450000.0,102 HENDERSON CRES,150102,1.290366187,103.82157708445,2025-05-05
198530,2025-05,BUKIT MERAH,4 ROOM,96A,HENDERSON RD,22 TO 24,93.0,Model A,2019,93 years 01 month,1070000.0,96A HENDERSON RD,151096,1.28798878836651,103.821947260359,2025-05-05
198674,2025-05,BUKIT MERAH,5 ROOM,75A,REDHILL RD,04 TO 06,115.0,Improved,2005,79 years 08 months,1145888.0,75A REDHILL RD,151075,1.28805315705423,103.815277070461,2025-05-05
198761,2025-05,BUKIT PANJANG,4 ROOM,166,GANGSA RD,04 TO 06,100.0,Model A,1998,72 years 01 month,640000.0,166 GANGSA RD,670166,1.37748344975701,103.765391081305,2025-05-05
198975,2025-05,BUKIT TIMAH,EXECUTIVE,15,TOH YI DR,01 TO 03,146.0,Maisonette,1988,62 years 03 months,1290000.0,15 TOH YI DR,590015,1.33931085810035,103.772051477646,2025-05-05
199225,2025-05,CHOA CHU KANG,4 ROOM,114,TECK WHYE LANE,04 TO 06,103.0,Model A,1989,63 years 05 months,515000.0,114 TECK WHYE LANE,680114,1.37850799248774,103.750707442454,2025-05-05
199289,2025-05,CHOA CHU KANG,5 ROOM,691A,CHOA CHU KANG CRES,04 TO 06,110.0,Improved,2003,77 years 01 month,553000.0,691A CHOA CHU KANG CRES,681691,1.40115779753494,103.751471709468,2025-05-05
199331,2025-05,CHOA CHU KANG,5 ROOM,159,JLN TECK WHYE,10 TO 12,120.0,Improved,1998,71 years 09 months,718000.0,159 JLN TECK WHYE,680159,1.38021644657731,103.756463742103,2025-05-05
199437,2025-05,CLEMENTI,3 ROOM,343,CLEMENTI AVE 5,04 TO 06,67.0,New Generation,1979,53 years 07 months,405000.0,343 CLEMENTI AVE 5,120343,1.31790852573142,103.770934449602,2025-05-05
199559,2025-05,CLEMENTI,5 ROOM,312C,CLEMENTI AVE 4,31 TO 33,113.0,Improved,2017,91 years 04 months,1360000.0,312C CLEMENTI AVE 4,123312,1.31952267914453,103.764025116013,2025-05-05
199755,2025-05,GEYLANG,4 ROOM,318,UBI AVE 1,07 TO 09,90.0,Simplified,1985,59 years 03 months,610000.0,318 UBI AVE 1,400318,1.32845731032674,103.903274600324,2025-05-05
199866,2025-05,HOUGANG,3 ROOM,307,HOUGANG AVE 5,04 TO 06,67.0,New Generation,1983,56 years 09 months,440000.0,307 HOUGANG AVE 5,530307,1.36665999438856,103.895009698642,2025-05-05
199905,2025-05,HOUGANG,3 ROOM,652,HOUGANG AVE 8,04 TO 06,60.0,Improved,1988,62 years 01 month,400000.0,652 HOUGANG AVE 8,530652,1.37240804310722,103.881598248704,2025-05-05
200077,2025-05,HOUGANG,4 ROOM,929,HOUGANG ST 91,01 TO 03,100.0,Model A,1998,72 years 03 months,574000.0,929 HOUGANG ST 91,530929,1.37603204309398,103.881497888579,2025-05-05
200098,2025-05,HOUGANG,4 ROOM,475D,UPP SERANGOON CRES,04 TO 06,92.0,DBSS,2014,88 years 07 months,785000.0,475D UPP SERANGOON CRES,537475,1.37518254401411,103.900405982824,2025-05-05
200192,2025-05,HOUGANG,EXECUTIVE,533,HOUGANG AVE 6,07 TO 09,145.0,Maisonette,1988,62 years,988000.0,533 HOUGANG AVE 6,530533,1.37583341032049,103.891885076183,2025-05-05
200204,2025-05,HOUGANG,EXECUTIVE,560,HOUGANG ST 51,13 TO 15,143.0,Apartment,1992,66 years 06 months,1008000.0,560 HOUGANG ST 51,530560,1.38031493250493,103.889395003894,2025-05-05
200332,2025-05,JURONG EAST,5 ROOM,109,JURONG EAST ST 13,13 TO 15,120.0,Improved,1981,55 years 07 months,675000.0,109 JURONG EAST ST 13,600109,1.3383617052828,103.735911158508,2025-05-05
200358,2025-05,JURONG EAST,EXECUTIVE,334,JURONG EAST AVE 1,01 TO 03,149.0,Maisonette,1984,58 years 02 months,850000.0,334 JURONG EAST AVE 1,600334,1.35078279521922,103.731532573887,2025-05-05
200444,2025-05,JURONG WEST,3 ROOM,140B,CORPORATION DR,16 TO 18,68.0,Model A,2019,93 years 02 months,500000.0,140B CORPORATION DR,612140,1.32727562835044,103.723574645357,2025-05-05
200583,2025-05,JURONG WEST,4 ROOM,476,JURONG WEST ST 41,01 TO 03,102.0,Model A,1984,58 years 05 months,550000.0,476 JURONG WEST ST 41,640476,1.34771574253853,103.7241842,2025-05-05
200607,2025-05,JURONG WEST,4 ROOM,413,JURONG WEST ST 42,10 TO 12,105.0,Model A,1984,58 years 03 months,495000.0,413 JURONG WEST ST 42,640413,1.35327579127819,103.725111457509,2025-05-05
200700,2025-05,JURONG WEST,4 ROOM,944,JURONG WEST ST 91,07 TO 09,105.0,Model A,1989,63 years 01 month,550000.0,944 JURONG WEST ST 91,640944,1.34460158675371,103.689712964527,2025-05-05
200707,2025-05,JURONG WEST,4 ROOM,923,JURONG WEST ST 92,04 TO 06,108.0,Model A,1989,62 years 09 months,480000.0,923 JURONG WEST ST 92,640923,1.3395365030556,103.689799865223,2025-05-05
200713,2025-05,JURONG WEST,4 ROOM,987D,JURONG WEST ST 93,07 TO 09,93.0,Premium Apartment,2006,80 years 01 month,588000.0,987D JURONG WEST ST 93,644987,1.33659660947488,103.69537817893,2025-05-05
200827,2025-05,JURONG WEST,5 ROOM,675B,JURONG WEST ST 64,13 TO 15,110.0,Premium Apartment,2008,82 years 03 months,610000.0,675B JURONG WEST ST 64,642675,1.34575308124211,103.703641775508,2025-05-05
200828,2025-05,JURONG WEST,5 ROOM,683C,JURONG WEST ST 64,10 TO 12,111.0,Premium Apartment,2000,74 years 06 months,700000.0,683C JURONG WEST ST 64,643683,1.34333442575136,103.704701215266,2025-05-05
200855,2025-05,JURONG WEST,5 ROOM,659A,JURONG WEST ST 65,13 TO 15,110.0,Improved,2001,75 years 02 months,690000.0,659A JURONG WEST ST 65,641659,1.33685014192095,103.702313572487,2025-05-05
201073,2025-05,KALLANG/WHAMPOA,3 ROOM,86,WHAMPOA DR,01 TO 03,66.0,Improved,1974,48 years 03 months,365888.0,86 WHAMPOA DR,320086,1.32313609086907,103.855871591303,2025-05-05
201106,2025-05,KALLANG/WHAMPOA,4 ROOM,9,GLOUCESTER RD,01 TO 03,91.0,New Generation,1976,50 years 07 months,610000.0,9 GLOUCESTER RD,210009,1.3135861663611,103.85169992386,2025-05-05
201363,2025-05,PASIR RIS,4 ROOM,528B,PASIR RIS ST 51,10 TO 12,93.0,Model A,2015,89 years 03 months,780000.0,528B PASIR RIS ST 51,512528,1.37062340418468,103.948163757719,2025-05-05
201604,2025-05,PUNGGOL,4 ROOM,120A,EDGEDALE PLAINS,13 TO 15,93.0,Model A,2017,91 years 01 month,671888.0,120A EDGEDALE PLAINS,821120,1.39451217943806,103.907964274268,2025-05-05
201694,2025-05,PUNGGOL,4 ROOM,667A,PUNGGOL DR,04 TO 06,93.0,Premium Apartment,2016,89 years 10 months,685000.0,667A PUNGGOL DR,821667,1.40260030998864,103.913971396177,2025-05-05
201727,2025-05,PUNGGOL,4 ROOM,259B,PUNGGOL FIELD,13 TO 15,93.0,Model A,2016,90 years 02 months,703000.0,259B PUNGGOL FIELD,822259,1.40387830838582,103.895238808655,2025-05-05
201858,2025-05,PUNGGOL,5 ROOM,172A,EDGEDALE PLAINS,13 TO 15,110.0,Improved,2004,78 years 02 months,665000.0,172A EDGEDALE PLAINS,821172,1.39533467975268,103.911433937342,2025-05-05
201931,2025-05,PUNGGOL,5 ROOM,288A,PUNGGOL PL,13 TO 15,112.0,Premium Apartment,2013,86 years 11 months,950000.0,288A PUNGGOL PL,821288,1.40237799447767,103.903039523309,2025-05-05
202005,2025-05,QUEENSTOWN,3 ROOM,82,C'WEALTH CL,07 TO 09,60.0,Standard,1967,40 years 09 months,385000.0,82 C'WEALTH CL,140082,1.30422050058916,103.800400186159,2025-05-05
202103,2025-05,QUEENSTOWN,3 ROOM,53,STRATHMORE AVE,37 TO 39,62.0,Premium Apartment,2020,94 years 08 months,795000.0,53 STRATHMORE AVE,140053,1.29277858643806,103.808445960195,2025-05-05
202145,2025-05,QUEENSTOWN,4 ROOM,23,DOVER CRES,10 TO 12,88.0,Improved,1976,50 years 03 months,520000.0,23 DOVER CRES,130023,1.30743646519275,103.78362947863,2025-05-05
202154,2025-05,QUEENSTOWN,4 ROOM,2,HOLLAND AVE,04 TO 06,88.0,Improved,1974,48 years 01 month,630000.0,2 HOLLAND AVE,271002,1.30934498335733,103.795559353753,2025-05-05
202461,2025-05,SEMBAWANG,4 ROOM,101A,CANBERRA ST,07 TO 09,93.0,Model A,2020,94 years 08 months,648888.0,101A CANBERRA ST,751101,1.45173892803325,103.83045410628,2025-05-05
202462,2025-05,SEMBAWANG,4 ROOM,102A,CANBERRA ST,13 TO 15,93.0,Model A,2020,94 years 08 months,680000.0,102A CANBERRA ST,751102,1.45119390519494,103.832227554636,2025-05-05
203029,2025-05,SENGKANG,4 ROOM,178B,RIVERVALE CRES,10 TO 12,93.0,Model A,2015,88 years 11 months,620000.0,178B RIVERVALE CRES,542178,1.38854689304718,103.910034044279,2025-05-05
203107,2025-05,SENGKANG,4 ROOM,448A,SENGKANG WEST WAY,04 TO 06,92.0,Model A,2014,88 years 03 months,625888.0,448A SENGKANG WEST WAY,791448,1.39293649855269,103.87299848136,2025-05-05
203138,2025-05,SENGKANG,5 ROOM,305A,ANCHORVALE LINK,13 TO 15,110.0,Improved,2002,75 years 10 months,640000.0,305A ANCHORVALE LINK,541305,1.38840183014731,103.88816713058,2025-05-05
203201,2025-05,SENGKANG,5 ROOM,257C,COMPASSVALE RD,10 TO 12,110.0,Improved,2001,74 years 10 months,775000.0,257C COMPASSVALE RD,543257,1.39278798548512,103.896388318333,2025-05-05
203209,2025-05,SENGKANG,5 ROOM,299C,COMPASSVALE ST,04 TO 06,114.0,Premium Apartment,2001,75 years 04 months,642000.0,299C COMPASSVALE ST,543299,1.39634901076212,103.901777949067,2025-05-05
203228,2025-05,SENGKANG,5 ROOM,468B,FERNVALE LINK,25 TO 27,113.0,Improved,2016,90 years 04 months,808000.0,468B FERNVALE LINK,792468,1.39745479369412,103.878010391039,2025-05-05
203256,2025-05,SENGKANG,5 ROOM,164C,RIVERVALE CRES,16 TO 18,113.0,Improved,2017,91 years 02 months,765088.0,164C RIVERVALE CRES,543164,1.38983290258257,103.907856160943,2025-05-05
203295,2025-05,SENGKANG,5 ROOM,200D,SENGKANG EAST RD,07 TO 09,110.0,Improved,2001,75 years 03 months,738000.0,200D SENGKANG EAST RD,544200,1.38726151170943,103.893007706343,2025-05-05
203350,2025-05,SENGKANG,EXECUTIVE,262B,COMPASSVALE ST,07 TO 09,130.0,Apartment,2001,75 years,885888.0,262B COMPASSVALE ST,542262,1.39510005315112,103.895470505301,2025-05-05
203489,2025-05,SERANGOON,EXECUTIVE,544,SERANGOON NTH AVE 3,10 TO 12,140.0,Apartment,1997,71 years 07 months,1000000.0,544 SERANGOON NTH AVE 3,550544,1.37440959294033,103.870931188069,2025-05-05
203551,2025-05,TAMPINES,3 ROOM,613A,TAMPINES NTH DR 1,07 TO 09,69.0,Model A,2020,94 years 06 months,646500.0,613A TAMPINES NTH DR 1,521613,1.3657934916842,103.935322892026,2025-05-05
203578,2025-05,TAMPINES,3 ROOM,201A,TAMPINES ST 21,01 TO 03,68.0,New Generation,1986,60 years 03 months,420000.0,201A TAMPINES ST 21,521201,1.35326412445458,103.952607406963,2025-05-05
203596,2025-05,TAMPINES,3 ROOM,219,TAMPINES ST 24,04 TO 06,73.0,Model A,1985,58 years 10 months,480000.0,219 TAMPINES ST 24,520219,1.35479243854559,103.952612725374,2025-05-05
203842,2025-05,TAMPINES,4 ROOM,247,TAMPINES ST 21,01 TO 03,91.0,New Generation,1984,58 years,610000.0,247 TAMPINES ST 21,521247,1.35228092171658,103.946911552645,2025-05-05
204066,2025-05,TAMPINES,5 ROOM,610B,TAMPINES NTH DR 1,10 TO 12,113.0,Improved,2020,94 years 06 months,915000.0,610B TAMPINES NTH DR 1,522610,1.3644178163568,103.936006719423,2025-05-05
204070,2025-05,TAMPINES,5 ROOM,126,TAMPINES ST 11,07 TO 09,134.0,Model A,1985,59 years 06 months,760000.0,126 TAMPINES ST 11,521126,1.34578613288722,103.950321611291,2025-05-05
204125,2025-05,TAMPINES,5 ROOM,492C,TAMPINES ST 45,10 TO 12,122.0,Improved,1993,67 years 03 months,748888.0,492C TAMPINES ST 45,522492,1.36342461933236,103.953941069939,2025-05-05
204228,2025-05,TOA PAYOH,3 ROOM,118A,ALKAFF CRES,01 TO 03,68.0,Model A,2020,94 years 08 months,745000.0,118A ALKAFF CRES,341118,1.33649028446747,103.873777299654,2025-05-05
204268,2025-05,TOA PAYOH,3 ROOM,173,LOR 1 TOA PAYOH,01 TO 03,66.0,Improved,1972,46 years 03 months,338888.0,173 LOR 1 TOA PAYOH,310173,1.33000819866672,103.842532936051,2025-05-05
204314,2025-05,TOA PAYOH,3 ROOM,235,LOR 8 TOA PAYOH,10 TO 12,65.0,Improved,1976,50 years 01 month,380000.0,235 LOR 8 TOA PAYOH,310235,1.33894969177117,103.857138926344,2025-05-05
204366,2025-05,TOA PAYOH,4 ROOM,118A,ALKAFF CRES,01 TO 03,93.0,Model A,2020,94 years 08 months,960000.0,118A ALKAFF CRES,341118,1.33649028446747,103.873777299654,2025-05-05
204406,2025-05,TOA PAYOH,4 ROOM,139A,LOR 1A TOA PAYOH,16 TO 18,91.0,DBSS,2012,85 years 11 months,1038000.0,139A LOR 1A TOA PAYOH,311139,1.33627775831234,103.844044881122,2025-05-05
204467,2025-05,TOA PAYOH,4 ROOM,79B,TOA PAYOH CTRL,10 TO 12,92.0,Model A,2009,83 years,965800.0,79B TOA PAYOH CTRL,312079,1.33464078301907,103.847990266882,2025-05-05
204589,2025-05,WOODLANDS,3 ROOM,2,MARSILING DR,04 TO 06,65.0,Improved,1974,48 years 04 months,340000.0,2 MARSILING DR,730002,1.43993828758599,103.776694750398,2025-05-05
204609,2025-05,WOODLANDS,3 ROOM,570A,WOODLANDS AVE 1,07 TO 09,67.0,Model A,2013,87 years 07 months,480000.0,570A WOODLANDS AVE 1,731570,1.43058343799569,103.790845778879,2025-05-05
204798,2025-05,WOODLANDS,4 ROOM,706,WOODLANDS DR 40,10 TO 12,100.0,Model A,1996,70 years 06 months,560000.0,706 WOODLANDS DR 40,730706,1.43977845720471,103.796686826798,2025-05-05
204926,2025-05,WOODLANDS,4 ROOM,183B,WOODLANDS ST 13,10 TO 12,93.0,Model A,2019,93 years 06 months,680000.0,183B WOODLANDS ST 13,732183,1.4351188080972,103.777142798069,2025-05-05
205072,2025-05,WOODLANDS,5 ROOM,795,WOODLANDS DR 72,10 TO 12,121.0,Improved,1998,71 years 09 months,685000.0,795 WOODLANDS DR 72,730795,1.44282035100621,103.804146233239,2025-05-05
205138,2025-05,WOODLANDS,5 ROOM,824,WOODLANDS ST 81,01 TO 03,121.0,Improved,1989,63 years 06 months,650000.0,824 WOODLANDS ST 81,730824,1.43923268770834,103.788699943987,2025-05-05
205495,2025-05,YISHUN,4 ROOM,508B,YISHUN AVE 4,07 TO 09,93.0,Model A,2018,92 years,648000.0,508B YISHUN AVE 4,762508,1.41429103817707,103.839839936719,2025-05-05
205496,2025-05,YISHUN,4 ROOM,671A,YISHUN AVE 4,01 TO 03,93.0,Model A,2018,91 years 09 months,569000.0,671A YISHUN AVE 4,761671,1.41897568011422,103.842333395726,2025-05-05
205730,2025-05,YISHUN,5 ROOM,316C,YISHUN AVE 9,10 TO 12,112.0,Improved,2015,89 years 06 months,740000.0,316C YISHUN AVE 9,763316,1.43292306072856,103.843472712009,2025-05-05
205779,2025-05,YISHUN,5 ROOM,872,YISHUN ST 81,04 TO 06,122.0,Improved,1988,61 years 10 months,648888.0,872 YISHUN ST 81,760872,1.41354510226183,103.836970731273,2025-05-05
197433,2025-05,BEDOK,3 ROOM,536,BEDOK NTH ST 3,01 TO 03,68.0,New Generation,1980,53 years 09 months,378000.0,536 BEDOK NTH ST 3,460536,1.3335411894605,103.923190774432,2025-05-06
197525,2025-05,BEDOK,4 ROOM,133,BEDOK NTH AVE 3,10 TO 12,92.0,New Generation,1978,52 years,550000.0,133 BEDOK NTH AVE 3,460133,1.32756257230307,103.93573462699,2025-05-06
197599,2025-05,BEDOK,4 ROOM,147,BEDOK RESERVOIR RD,04 TO 06,84.0,Simplified,1987,60 years 10 months,570000.0,147 BEDOK RESERVOIR RD,470147,1.33488194247883,103.911778859623,2025-05-06
197766,2025-05,BISHAN,3 ROOM,24,SIN MING RD,04 TO 06,65.0,Improved,1973,47 years 06 months,368000.0,24 SIN MING RD,570024,1.35518696986305,103.836337992513,2025-05-06
197797,2025-05,BISHAN,4 ROOM,239,BISHAN ST 22,01 TO 03,117.0,Model A,1992,66 years 04 months,870000.0,239 BISHAN ST 22,570239,1.36042894626787,103.8447773,2025-05-06
197810,2025-05,BISHAN,4 ROOM,272,BISHAN ST 24,04 TO 06,104.0,Model A,1992,66 years 04 months,780000.0,272 BISHAN ST 24,570272,1.35629489446383,103.842822596127,2025-05-06
197983,2025-05,BUKIT BATOK,3 ROOM,435B,BT BATOK WEST AVE 5,07 TO 09,68.0,Model A,2020,93 years 10 months,478000.0,435B BT BATOK WEST AVE 5,652435,1.35882272265832,103.740404826736,2025-05-06
198043,2025-05,BUKIT BATOK,4 ROOM,292B,BT BATOK EAST AVE 6,07 TO 09,93.0,Model A,2019,92 years 09 months,720000.0,292B BT BATOK EAST AVE 6,652292,1.34477953186313,103.753961675829,2025-05-06
198208,2025-05,BUKIT BATOK,4 ROOM,443B,BT BATOK WEST AVE 8,04 TO 06,92.0,Model A,2019,92 years 11 months,657000.0,443B BT BATOK WEST AVE 8,652443,1.35612327530865,103.737831166898,2025-05-06
198209,2025-05,BUKIT BATOK,4 ROOM,464A,BT BATOK WEST AVE 8,13 TO 15,93.0,Model A,2021,95 years 03 months,680000.0,464A BT BATOK WEST AVE 8,651464,1.35737021414307,103.741749681703,2025-05-06
198231,2025-05,BUKIT BATOK,5 ROOM,625,BT BATOK CTRL,07 TO 09,119.0,Improved,1997,71 years 02 months,880000.0,625 BT BATOK CTRL,650625,1.35138112759435,103.748585289075,2025-05-06
198376,2025-05,BUKIT MERAH,3 ROOM,110A,DEPOT RD,22 TO 24,67.0,Model A,2017,91 years 07 months,680000.0,110A DEPOT RD,101110,1.28142824815036,103.809242812919,2025-05-06
198418,2025-05,BUKIT MERAH,3 ROOM,28,JLN BT MERAH,07 TO 09,60.0,Standard,1967,41 years 02 months,376000.0,28 JLN BT MERAH,152028,1.28640350234512,103.809741989834,2025-05-06
198716,2025-05,BUKIT PANJANG,3 ROOM,232,PENDING RD,10 TO 12,73.0,Model A,1987,61 years 06 months,416000.0,232 PENDING RD,670232,1.37647117966901,103.772397980678,2025-05-06
198789,2025-05,BUKIT PANJANG,4 ROOM,536,JELAPANG RD,10 TO 12,101.0,Model A,1999,73 years 01 month,578888.0,536 JELAPANG RD,670536,1.38422183055836,103.763766919593,2025-05-06
198841,2025-05,BUKIT PANJANG,4 ROOM,457,SEGAR RD,10 TO 12,93.0,Premium Apartment,2012,86 years 07 months,655000.0,457 SEGAR RD,670457,1.38817649588077,103.770691341962,2025-05-06
198842,2025-05,BUKIT PANJANG,4 ROOM,485,SEGAR RD,07 TO 09,93.0,Model A,2014,88 years 08 months,588888.0,485 SEGAR RD,670485,1.38868132378093,103.771312569429,2025-05-06
198993,2025-05,BUKIT TIMAH,EXECUTIVE,3,TOH YI DR,07 TO 09,154.0,Maisonette,1988,62 years 04 months,1501555.0,3 TOH YI DR,590003,1.33877430429858,103.775254200454,2025-05-06
199005,2025-05,CENTRAL AREA,3 ROOM,8,SELEGIE RD,07 TO 09,67.0,Standard,1974,47 years 09 months,520000.0,8 SELEGIE RD,180008,1.30320667141798,103.850493368737,2025-05-06
199216,2025-05,CHOA CHU KANG,4 ROOM,640,CHOA CHU KANG ST 64,10 TO 12,100.0,Premium Apartment,1998,71 years 09 months,690000.0,640 CHOA CHU KANG ST 64,680640,1.39780253841646,103.749623257764,2025-05-06
199444,2025-05,CLEMENTI,3 ROOM,309,CLEMENTI AVE 4,07 TO 09,67.0,New Generation,1980,53 years 09 months,455000.0,309 CLEMENTI AVE 4,120309,1.32091981411778,103.766377598785,2025-05-06
199680,2025-05,GEYLANG,3 ROOM,16,EUNOS CRES,01 TO 03,70.0,Improved,1977,51 years 02 months,360000.0,16 EUNOS CRES,400016,1.32299431214867,103.904449779612,2025-05-06
199759,2025-05,GEYLANG,4 ROOM,121,PAYA LEBAR WAY,04 TO 06,91.0,New Generation,1980,54 years 04 months,514000.0,121 PAYA LEBAR WAY,381121,1.32192501630432,103.882860355973,2025-05-06
199999,2025-05,HOUGANG,4 ROOM,232,HOUGANG AVE 1,07 TO 09,104.0,Model A,1984,58 years 07 months,500000.0,232 HOUGANG AVE 1,530232,1.35854702755579,103.888523907469,2025-05-06
200062,2025-05,HOUGANG,4 ROOM,611,HOUGANG AVE 8,04 TO 06,104.0,Model A,1986,59 years 09 months,568888.0,611 HOUGANG AVE 8,530611,1.36997181721607,103.884745365702,2025-05-06
200136,2025-05,HOUGANG,4 ROOM,476B,UPP SERANGOON VIEW,10 TO 12,92.0,Premium Apartment,2016,89 years 11 months,800000.0,476B UPP SERANGOON VIEW,532476,1.37732845210704,103.904212191193,2025-05-06
200144,2025-05,HOUGANG,5 ROOM,997B,BUANGKOK CRES,01 TO 03,113.0,Improved,2018,92 years 07 months,720000.0,997B BUANGKOK CRES,532997,1.38590156781199,103.881387,2025-05-06
200148,2025-05,HOUGANG,5 ROOM,238,HOUGANG AVE 1,01 TO 03,138.0,Model A-Maisonette,1984,58 years 04 months,915000.0,238 HOUGANG AVE 1,530238,1.35714409402773,103.888970066565,2025-05-06
200238,2025-05,HOUGANG,EXECUTIVE,940,HOUGANG ST 92,04 TO 06,142.0,Apartment,1998,71 years 10 months,900000.0,940 HOUGANG ST 92,530940,1.37348307053932,103.879777763575,2025-05-06
200303,2025-05,JURONG EAST,3 ROOM,36,TEBAN GDNS RD,01 TO 03,74.0,Improved,1977,51 years 02 months,351000.0,36 TEBAN GDNS RD,600036,1.31997450302269,103.742739188864,2025-05-06
200321,2025-05,JURONG EAST,4 ROOM,224,JURONG EAST ST 21,07 TO 09,91.0,New Generation,1984,58 years 06 months,565000.0,224 JURONG EAST ST 21,600224,1.34171403139747,103.736733166148,2025-05-06
200330,2025-05,JURONG EAST,4 ROOM,324,JURONG EAST ST 31,10 TO 12,104.0,Model A,1984,58 years 07 months,565000.0,324 JURONG EAST ST 31,600324,1.3486489933486,103.729868988347,2025-05-06
200372,2025-05,JURONG EAST,5 ROOM,203,JURONG EAST ST 21,01 TO 03,121.0,Improved,1984,58 years 01 month,737000.0,203 JURONG EAST ST 21,600203,1.33683389097317,103.742544497471,2025-05-06
200439,2025-05,JURONG WEST,3 ROOM,187,BOON LAY AVE,19 TO 21,68.0,Improved,1978,52 years 03 months,358000.0,187 BOON LAY AVE,640187,1.34505773588933,103.710699802755,2025-05-06
200449,2025-05,JURONG WEST,3 ROOM,175,BOON LAY DR,07 TO 09,59.0,Improved,1978,52 years 04 months,333000.0,175 BOON LAY DR,640175,1.34668916681369,103.709485323529,2025-05-06
200605,2025-05,JURONG WEST,4 ROOM,679C,JURONG WEST CTRL 1,10 TO 12,94.0,Premium Apartment,2000,74 years 05 months,580000.0,679C JURONG WEST CTRL 1,643679,1.34392315743643,103.706395562005,2025-05-06
200610,2025-05,JURONG WEST,4 ROOM,276D,JURONG WEST ST 25,04 TO 06,90.0,Model A,2002,75 years 11 months,505000.0,276D JURONG WEST ST 25,644276,1.35344766528144,103.704411153076,2025-05-06
200724,2025-05,JURONG WEST,4 ROOM,814,JURONG WEST ST 81,10 TO 12,104.0,Model A,1990,64 years,538000.0,814 JURONG WEST ST 81,640814,1.34566786108845,103.695791563809,2025-05-06
200800,2025-05,JURONG WEST,5 ROOM,444,JURONG WEST AVE 1,07 TO 09,133.0,Model A,1985,58 years 11 months,630000.0,444 JURONG WEST AVE 1,640444,1.35195380808937,103.719396655601,2025-05-06
200868,2025-05,JURONG WEST,5 ROOM,664B,JURONG WEST ST 64,01 TO 03,110.0,Improved,2000,74 years 04 months,645000.0,664B JURONG WEST ST 64,642664,1.33835412965274,103.703585678772,2025-05-06
201205,2025-05,KALLANG/WHAMPOA,4 ROOM,9,ST. GEORGE'S RD,04 TO 06,104.0,Model A,1985,59 years,750000.0,9 ST. GEORGE'S RD,320009,1.32372379609506,103.862995082822,2025-05-06
201227,2025-05,KALLANG/WHAMPOA,4 ROOM,3D,UPP BOON KENG RD,10 TO 12,90.0,Model A,2006,80 years 04 months,925000.0,3D UPP BOON KENG RD,384003,1.31329783863328,103.872837648285,2025-05-06
201259,2025-05,KALLANG/WHAMPOA,5 ROOM,103,JLN RAJAH,13 TO 15,135.0,Model A,1984,58 years,899000.0,103 JLN RAJAH,321103,1.32734143333539,103.852780650365,2025-05-06
201266,2025-05,KALLANG/WHAMPOA,5 ROOM,122,MCNAIR RD,01 TO 03,126.0,Improved,1987,61 years,860000.0,122 MCNAIR RD,320122,1.3188425968422,103.856837677166,2025-05-06
201484,2025-05,PASIR RIS,5 ROOM,761,PASIR RIS ST 71,13 TO 15,125.0,Improved,1996,70 years 05 months,738888.0,761 PASIR RIS ST 71,510761,1.37610193104679,103.933867337036,2025-05-06
201494,2025-05,PASIR RIS,EXECUTIVE,643,PASIR RIS DR 10,07 TO 09,149.0,Apartment,1995,69 years 04 months,940000.0,643 PASIR RIS DR 10,510643,1.37775639575708,103.937965154187,2025-05-06
201627,2025-05,PUNGGOL,3 ROOM,325A,SUMANG WALK,19 TO 21,68.0,Premium Apartment,2020,93 years 09 months,570000.0,325A SUMANG WALK,821325,1.41359660400066,103.898121318524,2025-05-06
201775,2025-05,PUNGGOL,4 ROOM,268C,PUNGGOL FIELD,07 TO 09,93.0,Premium Apartment,2013,86 years 09 months,720000.0,268C PUNGGOL FIELD,823268,1.40347414894291,103.897938437602,2025-05-06
201855,2025-05,PUNGGOL,4 ROOM,265B,PUNGGOL WAY,13 TO 15,92.0,Model A,2015,89 years 03 months,735000.0,265B PUNGGOL WAY,822265,1.40519969260241,103.898662558654,2025-05-06
201883,2025-05,PUNGGOL,4 ROOM,323C,SUMANG WALK,16 TO 18,93.0,Premium Apartment,2020,93 years 10 months,752000.0,323C SUMANG WALK,823323,1.41266670276858,103.897601359974,2025-05-06
201909,2025-05,PUNGGOL,5 ROOM,133,EDGEDALE PLAINS,04 TO 06,111.0,Premium Apartment,2003,77 years 07 months,620000.0,133 EDGEDALE PLAINS,820133,1.39283155421467,103.910620119955,2025-05-06
201910,2025-05,PUNGGOL,5 ROOM,138,EDGEDALE PLAINS,10 TO 12,112.0,Premium Apartment,2003,77 years 08 months,621888.0,138 EDGEDALE PLAINS,820138,1.39277115890643,103.909796213697,2025-05-06
201976,2025-05,PUNGGOL,5 ROOM,110D,PUNGGOL FIELD,01 TO 03,110.0,Improved,2003,77 years 01 month,630000.0,110D PUNGGOL FIELD,824110,1.39500071174513,103.910206023671,2025-05-06
202160,2025-05,QUEENSTOWN,3 ROOM,89,TANGLIN HALT RD,28 TO 30,60.0,Model A,2008,82 years 04 months,755000.0,89 TANGLIN HALT RD,141089,1.30120035372775,103.798921874569,2025-05-06
202187,2025-05,QUEENSTOWN,4 ROOM,89,DAWSON RD,07 TO 09,95.0,Premium Apartment Loft,2016,90 years,1155000.0,89 DAWSON RD,142089,1.29546316937491,103.811785236884,2025-05-06
202254,2025-05,QUEENSTOWN,5 ROOM,8,GHIM MOH RD,01 TO 03,114.0,Standard,1977,50 years 09 months,765000.0,8 GHIM MOH RD,270008,1.31057227583682,103.787643069812,2025-05-06
202316,2025-05,SEMBAWANG,2 ROOM,591A,MONTREAL LINK,04 TO 06,47.0,Model A,2015,89 years,370000.0,591A MONTREAL LINK,751591,1.45075627789135,103.826236742405,2025-05-06
202383,2025-05,SEMBAWANG,4 ROOM,482,ADMIRALTY LINK,13 TO 15,87.0,Model A2,2004,77 years 11 months,515000.0,482 ADMIRALTY LINK,750482,1.45543968418756,103.815460900731,2025-05-06
202408,2025-05,SEMBAWANG,4 ROOM,131B,CANBERRA CRES,07 TO 09,92.0,Model A,2020,94 years 06 months,780888.0,131B CANBERRA CRES,752131,1.4441465844546,103.830857595253,2025-05-06
202523,2025-05,SEMBAWANG,4 ROOM,126A,CANBERRA ST,01 TO 03,93.0,Model A,2021,94 years 09 months,615000.0,126A CANBERRA ST,751126,1.44515880423783,103.834981318758,2025-05-06
202546,2025-05,SEMBAWANG,4 ROOM,592B,MONTREAL LINK,16 TO 18,93.0,Model A,2015,89 years,610988.0,592B MONTREAL LINK,752592,1.45066388771139,103.827601887037,2025-05-06
202676,2025-05,SEMBAWANG,5 ROOM,126A,CANBERRA ST,07 TO 09,116.0,Improved,2021,94 years 09 months,833000.0,126A CANBERRA ST,751126,1.44515880423783,103.834981318758,2025-05-06
202677,2025-05,SEMBAWANG,5 ROOM,126D,CANBERRA ST,04 TO 06,116.0,Improved,2020,94 years 06 months,820000.0,126D CANBERRA ST,754126,1.4465750273277,103.834792499436,2025-05-06
202719,2025-05,SEMBAWANG,EXECUTIVE,357A,ADMIRALTY DR,04 TO 06,131.0,Premium Apartment,2001,75 years 02 months,770000.0,357A ADMIRALTY DR,751357,1.45004399363065,103.817003273639,2025-05-06
202792,2025-05,SENGKANG,3 ROOM,353B,ANCHORVALE LANE,10 TO 12,68.0,Model A,2021,94 years 10 months,550000.0,353B ANCHORVALE LANE,542353,1.39434782021906,103.88585684721,2025-05-06
202858,2025-05,SENGKANG,4 ROOM,336D,ANCHORVALE CRES,01 TO 03,92.0,Premium Apartment,2015,89 years 08 months,595000.0,336D ANCHORVALE CRES,544336,1.39776902487201,103.888235889907,2025-05-06
202911,2025-05,SENGKANG,4 ROOM,308C,ANCHORVALE RD,04 TO 06,90.0,Model A,2002,75 years 10 months,560000.0,308C ANCHORVALE RD,543308,1.3892274723179,103.886844686117,2025-05-06
203099,2025-05,SENGKANG,4 ROOM,178D,RIVERVALE CRES,13 TO 15,93.0,Model A,2015,88 years 11 months,620000.0,178D RIVERVALE CRES,544178,1.38904079413305,103.91071884624,2025-05-06
203141,2025-05,SENGKANG,4 ROOM,261C,SENGKANG EAST WAY,07 TO 09,85.0,Model A2,2000,74 years 06 months,653000.0,261C SENGKANG EAST WAY,543261,1.39332256079354,103.894891314314,2025-05-06
203287,2025-05,SENGKANG,5 ROOM,233,COMPASSVALE WALK,10 TO 12,123.0,Improved,1999,73 years 03 months,690000.0,233 COMPASSVALE WALK,540233,1.38994081535227,103.900721365137,2025-05-06
203429,2025-05,SENGKANG,EXECUTIVE,143,RIVERVALE DR,07 TO 09,135.0,Apartment,1999,73 years 08 months,838000.0,143 RIVERVALE DR,540143,1.39006592833714,103.905723427087,2025-05-06
203652,2025-05,TAMPINES,3 ROOM,201B,TAMPINES ST 21,01 TO 03,67.0,New Generation,1987,61 years 07 months,432888.0,201B TAMPINES ST 21,522201,1.35345315769813,103.953009918868,2025-05-06
203682,2025-05,TAMPINES,3 ROOM,450,TAMPINES ST 42,10 TO 12,74.0,Model A,1985,58 years 09 months,471000.0,450 TAMPINES ST 42,520450,1.35742126002469,103.951661274552,2025-05-06
203689,2025-05,TAMPINES,3 ROOM,492G,TAMPINES ST 45,04 TO 06,67.0,Model A,2018,92 years 07 months,540000.0,492G TAMPINES ST 45,527492,1.36424140790743,103.95508531832,2025-05-06
203800,2025-05,TAMPINES,4 ROOM,520C,TAMPINES CTRL 8,13 TO 15,84.0,DBSS,2014,88 years 02 months,862000.0,520C TAMPINES CTRL 8,523520,1.35674170789189,103.939692399456,2025-05-06
203910,2025-05,TAMPINES,4 ROOM,144,TAMPINES ST 12,04 TO 06,103.0,Model A,1985,58 years 11 months,610000.0,144 TAMPINES ST 12,521144,1.34841857750645,103.943725846535,2025-05-06
203977,2025-05,TAMPINES,4 ROOM,494H,TAMPINES ST 45,10 TO 12,92.0,Model A,2018,92 years 07 months,748000.0,494H TAMPINES ST 45,528494,1.36368314068034,103.95499248871,2025-05-06
203988,2025-05,TAMPINES,4 ROOM,605A,TAMPINES ST 61,10 TO 12,92.0,Model A,2020,93 years 10 months,777888.0,605A TAMPINES ST 61,521605,1.36240981026353,103.935600500968,2025-05-06
204003,2025-05,TAMPINES,4 ROOM,731,TAMPINES ST 71,10 TO 12,103.0,Model A,1997,71 years 02 months,680000.0,731 TAMPINES ST 71,520731,1.35700670008105,103.934099343677,2025-05-06
204009,2025-05,TAMPINES,4 ROOM,896,TAMPINES ST 81,01 TO 03,104.0,Model A,1988,62 years 05 months,623000.0,896 TAMPINES ST 81,520896,1.34830327385557,103.932451735683,2025-05-06
204010,2025-05,TAMPINES,4 ROOM,899,TAMPINES ST 81,01 TO 03,103.0,Model A,1988,62 years 02 months,638000.0,899 TAMPINES ST 81,520899,1.34652914183515,103.935453703307,2025-05-06
204091,2025-05,TAMPINES,5 ROOM,519B,TAMPINES CTRL 8,13 TO 15,108.0,DBSS,2014,88 years 03 months,1050000.0,519B TAMPINES CTRL 8,522519,1.35743365377488,103.940051716546,2025-05-06
204151,2025-05,TAMPINES,5 ROOM,610C,TAMPINES NTH DR 1,04 TO 06,113.0,Improved,2020,94 years 06 months,870000.0,610C TAMPINES NTH DR 1,523610,1.36441776002022,103.935558340158,2025-05-06
204152,2025-05,TAMPINES,5 ROOM,612B,TAMPINES NTH DR 1,10 TO 12,113.0,Improved,2020,94 years 06 months,900000.0,612B TAMPINES NTH DR 1,522612,1.36536043524759,103.935789815182,2025-05-06
204235,2025-05,TAMPINES,5 ROOM,871,TAMPINES ST 84,01 TO 03,121.0,Improved,1988,62 years 06 months,725000.0,871 TAMPINES ST 84,520871,1.35440347555796,103.932702293995,2025-05-06
204260,2025-05,TAMPINES,EXECUTIVE,245,TAMPINES ST 21,07 TO 09,151.0,Apartment,1984,58 years 08 months,1045000.0,245 TAMPINES ST 21,521245,1.35320840937901,103.946489840363,2025-05-06
204303,2025-05,TOA PAYOH,2 ROOM,54,LOR 5 TOA PAYOH,10 TO 12,43.0,Standard,1967,41 years 02 months,295000.0,54 LOR 5 TOA PAYOH,310054,1.3373566637027,103.850390748824,2025-05-06
204308,2025-05,TOA PAYOH,2 ROOM,51,LOR 6 TOA PAYOH,04 TO 06,50.0,Standard,1983,57 years 03 months,340000.0,51 LOR 6 TOA PAYOH,310051,1.33778337648439,103.852507455855,2025-05-06
204360,2025-05,TOA PAYOH,3 ROOM,131A,LOR 1 TOA PAYOH,25 TO 27,68.0,Model A,2018,92 years 04 months,813000.0,131A LOR 1 TOA PAYOH,311131,1.33843987383953,103.843390114067,2025-05-06
204472,2025-05,TOA PAYOH,4 ROOM,102A,BIDADARI PK DR,04 TO 06,97.0,Model A,2021,95 years 02 months,1120000.0,102A BIDADARI PK DR,341102,1.33735590005967,103.871390657454,2025-05-06
204480,2025-05,TOA PAYOH,4 ROOM,251,KIM KEAT LINK,07 TO 09,105.0,Model A,1988,62 years 08 months,665000.0,251 KIM KEAT LINK,310251,1.3315468916112,103.85701736179,2025-05-06
204859,2025-05,WOODLANDS,4 ROOM,774,WOODLANDS CRES,10 TO 12,92.0,Model A2,1997,71 years 06 months,520099.0,774 WOODLANDS CRES,730774,1.44814759810496,103.799142729823,2025-05-06
204860,2025-05,WOODLANDS,4 ROOM,782C,WOODLANDS CRES,13 TO 15,92.0,Model A,2015,89 years 02 months,580000.0,782C WOODLANDS CRES,733782,1.44768422279415,103.803460439858,2025-05-06
204921,2025-05,WOODLANDS,4 ROOM,892A,WOODLANDS DR 50,01 TO 03,100.0,Model A,1996,70 years 07 months,548000.0,892A WOODLANDS DR 50,730892,1.43726918605213,103.790432362073,2025-05-06
205105,2025-05,WOODLANDS,5 ROOM,776,WOODLANDS CRES,04 TO 06,121.0,Improved,1998,71 years 09 months,652000.0,776 WOODLANDS CRES,730776,1.44806964071842,103.799762634431,2025-05-06
205134,2025-05,WOODLANDS,5 ROOM,542,WOODLANDS DR 16,01 TO 03,121.0,Improved,2000,74 years 01 month,620000.0,542 WOODLANDS DR 16,730542,1.42773187485332,103.793625057871,2025-05-06
205244,2025-05,WOODLANDS,5 ROOM,863,WOODLANDS ST 83,07 TO 09,126.0,Improved,1996,69 years 11 months,700000.0,863 WOODLANDS ST 83,730863,1.4403972427118,103.795020326652,2025-05-06
205442,2025-05,YISHUN,3 ROOM,122,YISHUN ST 11,07 TO 09,71.0,New Generation,1984,58 years 07 months,410000.0,122 YISHUN ST 11,760122,1.43499758920055,103.831124796378,2025-05-06
205559,2025-05,YISHUN,4 ROOM,348A,YISHUN AVE 11,13 TO 15,92.0,DBSS,2013,87 years 06 months,800000.0,348A YISHUN AVE 11,761348,1.42735308102406,103.84121918037,2025-05-06
205623,2025-05,YISHUN,4 ROOM,289,YISHUN AVE 6,04 TO 06,84.0,Simplified,1987,61 years 03 months,483000.0,289 YISHUN AVE 6,760289,1.44052449307012,103.839005531098,2025-05-06
205624,2025-05,YISHUN,4 ROOM,462D,YISHUN AVE 6,10 TO 12,93.0,Model A,2019,93 years 04 months,640000.0,462D YISHUN AVE 6,764462,1.42803884912514,103.850959508396,2025-05-06
205688,2025-05,YISHUN,4 ROOM,411,YISHUN RING RD,04 TO 06,104.0,Model A,1993,66 years 10 months,585000.0,411 YISHUN RING RD,760411,1.42574178895795,103.847404279075,2025-05-06
205689,2025-05,YISHUN,4 ROOM,451,YISHUN RING RD,07 TO 09,92.0,Model A,2012,86 years 04 months,610000.0,451 YISHUN RING RD,760451,1.42205375166534,103.844675188975,2025-05-06
205723,2025-05,YISHUN,4 ROOM,334D,YISHUN ST 31,13 TO 15,92.0,Model A,2015,89 years 07 months,618888.0,334D YISHUN ST 31,764334,1.43241464963844,103.846517127438,2025-05-06
205812,2025-05,YISHUN,5 ROOM,416,YISHUN AVE 11,04 TO 06,122.0,Improved,1993,66 years 10 months,715000.0,416 YISHUN AVE 11,760416,1.42373289076121,103.846082250956,2025-05-06
197180,2025-05,ANG MO KIO,3 ROOM,509,ANG MO KIO AVE 8,04 TO 06,81.0,New Generation,1980,54 years 02 months,475000.0,509 ANG MO KIO AVE 8,560509,1.37400086510074,103.850139806283,2025-05-07
197319,2025-05,ANG MO KIO,5 ROOM,455B,ANG MO KIO ST 44,07 TO 09,113.0,Improved,2018,91 years 11 months,1099000.0,455B ANG MO KIO ST 44,562455,1.36833017912554,103.858495667837,2025-05-07
197320,2025-05,ANG MO KIO,5 ROOM,455B,ANG MO KIO ST 44,13 TO 15,113.0,Improved,2018,91 years 11 months,1075000.0,455B ANG MO KIO ST 44,562455,1.36833017912554,103.858495667837,2025-05-07
197340,2025-05,BEDOK,2 ROOM,617,BEDOK RESERVOIR RD,01 TO 03,45.0,Improved,1986,59 years 10 months,330000.0,617 BEDOK RESERVOIR RD,470617,1.33312757781896,103.91651174393,2025-05-07
197479,2025-05,BEDOK,3 ROOM,33,BEDOK STH AVE 2,01 TO 03,73.0,New Generation,1978,51 years 11 months,400000.0,33 BEDOK STH AVE 2,460033,1.32283703302242,103.939124525951,2025-05-07
197605,2025-05,BEDOK,4 ROOM,146,BEDOK RESERVOIR RD,10 TO 12,84.0,Simplified,1986,60 years 08 months,620000.0,146 BEDOK RESERVOIR RD,470146,1.33459969119921,103.912010752027,2025-05-07
197700,2025-05,BEDOK,5 ROOM,603,BEDOK RESERVOIR RD,01 TO 03,120.0,Improved,1982,56 years 01 month,650000.0,603 BEDOK RESERVOIR RD,470603,1.33000183975836,103.912464022386,2025-05-07
197732,2025-05,BEDOK,5 ROOM,109,LENGKONG TIGA,04 TO 06,121.0,Improved,1989,62 years 09 months,960000.0,109 LENGKONG TIGA,410109,1.32458076244969,103.910697531082,2025-05-07
197814,2025-05,BISHAN,4 ROOM,228,BISHAN ST 23,10 TO 12,113.0,Model A,1992,65 years 11 months,890000.0,228 BISHAN ST 23,570228,1.35794929131792,103.846767675257,2025-05-07
197820,2025-05,BISHAN,4 ROOM,289,BISHAN ST 24,04 TO 06,100.0,Premium Apartment,1998,72 years 02 months,868000.0,289 BISHAN ST 24,570289,1.35666114854932,103.844930577727,2025-05-07
197830,2025-05,BISHAN,4 ROOM,25,SIN MING RD,10 TO 12,88.0,Improved,1974,48 years 03 months,512100.0,25 SIN MING RD,570025,1.35489092310003,103.838189857539,2025-05-07
197843,2025-05,BISHAN,5 ROOM,161,BISHAN ST 13,22 TO 24,128.0,Improved,1988,62 years 03 months,1100000.0,161 BISHAN ST 13,570161,1.34759183482171,103.856411840501,2025-05-07
197939,2025-05,BUKIT BATOK,3 ROOM,231,BT BATOK EAST AVE 5,07 TO 09,67.0,New Generation,1985,59 years 02 months,432000.0,231 BT BATOK EAST AVE 5,650231,1.34908254998383,103.754518186115,2025-05-07
197955,2025-05,BUKIT BATOK,3 ROOM,217,BT BATOK ST 21,10 TO 12,67.0,New Generation,1984,58 years 08 months,460000.0,217 BT BATOK ST 21,650217,1.34673392184416,103.754727840299,2025-05-07
197963,2025-05,BUKIT BATOK,3 ROOM,311,BT BATOK ST 32,01 TO 03,64.0,Simplified,1988,61 years 09 months,405000.0,311 BT BATOK ST 32,650311,1.36008251500719,103.748341653201,2025-05-07
197983,2025-05,BUKIT BATOK,3 ROOM,505,BT BATOK ST 52,07 TO 09,69.0,Improved,1988,61 years 10 months,420888.0,505 BT BATOK ST 52,650505,1.35191995209035,103.753670851157,2025-05-07
197984,2025-05,BUKIT BATOK,3 ROOM,537,BT BATOK ST 52,01 TO 03,73.0,Model A,1987,61 years 01 month,408000.0,537 BT BATOK ST 52,650537,1.35511516448647,103.750877888291,2025-05-07
198035,2025-05,BUKIT BATOK,3 ROOM,460B,BT BATOK WEST AVE 9,04 TO 06,68.0,Model A,2020,94 years 01 month,493000.0,460B BT BATOK WEST AVE 9,652460,1.35370592391877,103.739150308425,2025-05-07
198126,2025-05,BUKIT BATOK,4 ROOM,540,BT BATOK ST 52,01 TO 03,103.0,Model A,1987,61 years 05 months,560000.0,540 BT BATOK ST 52,650540,1.35440568176535,103.75130601487,2025-05-07
198153,2025-05,BUKIT BATOK,4 ROOM,384,BT BATOK WEST AVE 5,22 TO 24,92.0,Model A,2005,78 years 09 months,610000.0,384 BT BATOK WEST AVE 5,650384,1.36293263679642,103.752194207305,2025-05-07
198230,2025-05,BUKIT BATOK,4 ROOM,441B,BT BATOK WEST AVE 8,04 TO 06,92.0,Model A,2019,92 years 11 months,620000.0,441B BT BATOK WEST AVE 8,652441,1.35600327228239,103.738549101393,2025-05-07
198502,2025-05,BUKIT MERAH,3 ROOM,18,TIONG BAHRU RD,04 TO 06,88.0,Standard,1973,46 years 09 months,830000.0,18 TIONG BAHRU RD,163018,1.28572778130037,103.832592401388,2025-05-07
198512,2025-05,BUKIT MERAH,4 ROOM,9B,BOON TIONG RD,04 TO 06,92.0,Model A,2016,89 years 09 months,1088000.0,9B BOON TIONG RD,163009,1.28681417822795,103.828928312802,2025-05-07
198813,2025-05,BUKIT PANJANG,4 ROOM,522,JELAPANG RD,13 TO 15,102.0,Model A,1998,72 years 03 months,590000.0,522 JELAPANG RD,670522,1.3863359929313,103.766165401472,2025-05-07
199014,2025-05,BUKIT TIMAH,5 ROOM,5,TOH YI DR,01 TO 03,122.0,Improved,1989,63 years 03 months,1050000.0,5 TOH YI DR,590005,1.33820236785945,103.774522626293,2025-05-07
199023,2025-05,CENTRAL AREA,3 ROOM,30,KELANTAN RD,07 TO 09,66.0,Improved,1981,55 years 03 months,486688.0,30 KELANTAN RD,200030,1.30547181939625,103.856879434972,2025-05-07
199199,2025-05,CHOA CHU KANG,4 ROOM,677,CHOA CHU KANG CRES,01 TO 03,106.0,Premium Apartment,1999,73 years 06 months,550000.0,677 CHOA CHU KANG CRES,680677,1.40151021475963,103.745481871107,2025-05-07
199211,2025-05,CHOA CHU KANG,4 ROOM,230,CHOA CHU KANG CTRL,10 TO 12,104.0,Model A,1990,64 years 02 months,590000.0,230 CHOA CHU KANG CTRL,680230,1.38038258134348,103.746190535886,2025-05-07
199375,2025-05,CHOA CHU KANG,5 ROOM,613,CHOA CHU KANG ST 62,10 TO 12,135.0,Model A,1996,70 years 02 months,745000.0,613 CHOA CHU KANG ST 62,680613,1.40063924818019,103.744405825635,2025-05-07
199452,2025-05,CLEMENTI,3 ROOM,364,CLEMENTI AVE 2,01 TO 03,81.0,New Generation,1978,51 years 09 months,472800.0,364 CLEMENTI AVE 2,120364,1.31240641918888,103.768752275192,2025-05-07
199695,2025-05,GEYLANG,3 ROOM,57,CIRCUIT RD,07 TO 09,56.0,Standard,1969,42 years 09 months,330000.0,57 CIRCUIT RD,370057,1.32472311721669,103.886685702383,2025-05-07
199747,2025-05,GEYLANG,4 ROOM,56,CASSIA CRES,04 TO 06,101.0,Model A,1998,71 years 10 months,818000.0,56 CASSIA CRES,391056,1.31022063491151,103.88323543756,2025-05-07
199869,2025-05,HOUGANG,3 ROOM,992B,BUANGKOK LINK,01 TO 03,68.0,Model A,2019,93 years 02 months,490000.0,992B BUANGKOK LINK,532992,1.3838267304931,103.881672473881,2025-05-07
199882,2025-05,HOUGANG,3 ROOM,123,HOUGANG AVE 1,04 TO 06,82.0,New Generation,1981,55 years 05 months,480888.0,123 HOUGANG AVE 1,530123,1.35338313924634,103.88625894527,2025-05-07
199886,2025-05,HOUGANG,3 ROOM,511,HOUGANG AVE 10,07 TO 09,64.0,Simplified,1986,60 years 01 month,479000.0,511 HOUGANG AVE 10,530511,1.37207420608508,103.888728981515,2025-05-07
199905,2025-05,HOUGANG,3 ROOM,2,HOUGANG AVE 3,04 TO 06,59.0,Improved,1975,49 years 03 months,360000.0,2 HOUGANG AVE 3,530002,1.36313720753256,103.893184540903,2025-05-07
200049,2025-05,HOUGANG,4 ROOM,701,HOUGANG AVE 2,04 TO 06,96.0,New Generation,1985,59 years 07 months,560000.0,701 HOUGANG AVE 2,530701,1.36548398291324,103.890200268843,2025-05-07
200114,2025-05,HOUGANG,4 ROOM,154,HOUGANG ST 11,07 TO 09,96.0,New Generation,1984,58 years 09 months,572888.0,154 HOUGANG ST 11,530154,1.3522029527063,103.880173191904,2025-05-07
200264,2025-05,HOUGANG,EXECUTIVE,621,HOUGANG AVE 8,01 TO 03,155.0,Maisonette,1986,59 years 10 months,950000.0,621 HOUGANG AVE 8,530621,1.36991763773226,103.883193094527,2025-05-07
200305,2025-05,JURONG EAST,3 ROOM,210,JURONG EAST ST 21,10 TO 12,67.0,New Generation,1983,57 years 02 months,420000.0,210 JURONG EAST ST 21,600210,1.33889493784685,103.73855509854,2025-05-07
200306,2025-05,JURONG EAST,3 ROOM,211,JURONG EAST ST 21,01 TO 03,67.0,New Generation,1983,57 years,400000.0,211 JURONG EAST ST 21,600211,1.33866911059386,103.740292528065,2025-05-07
200389,2025-05,JURONG EAST,4 ROOM,52,TEBAN GDNS RD,10 TO 12,83.0,Simplified,1987,60 years 11 months,510000.0,52 TEBAN GDNS RD,600052,1.32100982297014,103.73748275185,2025-05-07
200390,2025-05,JURONG EAST,4 ROOM,64,TEBAN GDNS RD,25 TO 27,91.0,Model A,2003,77 years 02 months,585000.0,64 TEBAN GDNS RD,600064,1.32137890995417,103.739779356356,2025-05-07
200451,2025-05,JURONG EAST,EXECUTIVE,285D,TOH GUAN RD,07 TO 09,143.0,Apartment,1998,72 years 08 months,1050000.0,285D TOH GUAN RD,604285,1.33789020611793,103.746039348397,2025-05-07
200563,2025-05,JURONG WEST,3 ROOM,561B,JURONG WEST ST 42,13 TO 15,68.0,Model A,2018,91 years 10 months,510000.0,561B JURONG WEST ST 42,642561,1.35477102717501,103.71967262747,2025-05-07
200606,2025-05,JURONG WEST,3 ROOM,122,YUAN CHING RD,10 TO 12,61.0,Improved,1974,48 years 02 months,328000.0,122 YUAN CHING RD,610122,1.33598546940987,103.72386599203,2025-05-07
200668,2025-05,JURONG WEST,4 ROOM,468,JURONG WEST ST 41,04 TO 06,98.0,New Generation,1985,59 years 02 months,558000.0,468 JURONG WEST ST 41,640468,1.34852648204884,103.720486241454,2025-05-07
200754,2025-05,JURONG WEST,4 ROOM,751,JURONG WEST ST 73,10 TO 12,104.0,Model A,1992,66 years 05 months,570000.0,751 JURONG WEST ST 73,640751,1.34760958144611,103.699227740175,2025-05-07
200860,2025-05,JURONG WEST,5 ROOM,683B,JURONG WEST CTRL 1,01 TO 03,111.0,Premium Apartment,2000,74 years 06 months,626000.0,683B JURONG WEST CTRL 1,642683,1.34297156674521,103.704760487896,2025-05-07
200880,2025-05,JURONG WEST,5 ROOM,408,JURONG WEST ST 42,07 TO 09,139.0,Model A-Maisonette,1984,57 years 11 months,700000.0,408 JURONG WEST ST 42,640408,1.35478633435811,103.722563908677,2025-05-07
200947,2025-05,JURONG WEST,5 ROOM,619,JURONG WEST ST 65,07 TO 09,110.0,Improved,2000,74 years 08 months,640000.0,619 JURONG WEST ST 65,640619,1.34151734586068,103.69989937466,2025-05-07
200964,2025-05,JURONG WEST,5 ROOM,833,JURONG WEST ST 81,04 TO 06,127.0,Improved,1993,67 years 02 months,570000.0,833 JURONG WEST ST 81,640833,1.34374402387877,103.694357308749,2025-05-07
201042,2025-05,JURONG WEST,EXECUTIVE,607,JURONG WEST ST 65,04 TO 06,133.0,Premium Apartment,2001,75 years,782000.0,607 JURONG WEST ST 65,640607,1.33797491687292,103.699697593715,2025-05-07
201123,2025-05,KALLANG/WHAMPOA,3 ROOM,804,KING GEORGE'S AVE,07 TO 09,59.0,Improved,1981,55 years 04 months,468000.0,804 KING GEORGE'S AVE,200804,1.30787507917062,103.860792024681,2025-05-07
201169,2025-05,KALLANG/WHAMPOA,3 ROOM,75,WHAMPOA DR,10 TO 12,65.0,Improved,1974,47 years 09 months,354888.0,75 WHAMPOA DR,320075,1.32441875533381,103.858185074994,2025-05-07
201204,2025-05,KALLANG/WHAMPOA,4 ROOM,106,JLN DUSUN,04 TO 06,94.0,New Generation,1981,55 years 02 months,630000.0,106 JLN DUSUN,320106,1.32855771177594,103.844796773619,2025-05-07
201258,2025-05,KALLANG/WHAMPOA,4 ROOM,4C,ST. GEORGE'S LANE,16 TO 18,106.0,Model A,1996,70 years 08 months,926000.0,4C ST. GEORGE'S LANE,322004,1.32211971964107,103.860820092196,2025-05-07
201259,2025-05,KALLANG/WHAMPOA,4 ROOM,26B,ST. GEORGE'S LANE,28 TO 30,92.0,Model A,2020,94 years 01 month,1225000.0,26B ST. GEORGE'S LANE,322026,1.32166862124903,103.862717909816,2025-05-07
201337,2025-05,KALLANG/WHAMPOA,EXECUTIVE,10,JLN BATU,10 TO 12,141.0,Apartment,1986,59 years 09 months,1030000.0,10 JLN BATU,431010,1.30204488252463,103.882887148325,2025-05-07
201493,2025-05,PASIR RIS,5 ROOM,232,PASIR RIS DR 4,07 TO 09,128.0,Improved,1993,67 years 03 months,708000.0,232 PASIR RIS DR 4,510232,1.37472099992647,103.961671927365,2025-05-07
201595,2025-05,PASIR RIS,EXECUTIVE,585,PASIR RIS ST 53,04 TO 06,149.0,Maisonette,1995,69 years 06 months,1050000.0,585 PASIR RIS ST 53,510585,1.37535084700775,103.947376563493,2025-05-07
201648,2025-05,PUNGGOL,3 ROOM,208C,PUNGGOL PL,01 TO 03,67.0,Model A,2014,88 years 02 months,521000.0,208C PUNGGOL PL,823208,1.40094119675936,103.901144550587,2025-05-07
201839,2025-05,PUNGGOL,4 ROOM,170A,PUNGGOL FIELD,10 TO 12,92.0,Model A,2014,88 years,677000.0,170A PUNGGOL FIELD,821170,1.39356094752398,103.914860704891,2025-05-07
201840,2025-05,PUNGGOL,4 ROOM,259A,PUNGGOL FIELD,10 TO 12,93.0,Model A,2016,90 years 02 months,650000.0,259A PUNGGOL FIELD,821259,1.40382339950391,103.895547769394,2025-05-07
201841,2025-05,PUNGGOL,4 ROOM,268B,PUNGGOL FIELD,10 TO 12,95.0,Premium Apartment,2013,86 years 09 months,700000.0,268B PUNGGOL FIELD,822268,1.40378241604129,103.897300084671,2025-05-07
201977,2025-05,PUNGGOL,5 ROOM,109D,EDGEDALE PLAINS,13 TO 15,111.0,Improved,2003,77 years 01 month,645000.0,109D EDGEDALE PLAINS,824109,1.39552991291305,103.908859627789,2025-05-07
202044,2025-05,PUNGGOL,5 ROOM,199C,PUNGGOL FIELD,13 TO 15,110.0,Improved,2003,77 years 04 months,650000.0,199C PUNGGOL FIELD,823199,1.40064708187083,103.906006617712,2025-05-07
202127,2025-05,QUEENSTOWN,3 ROOM,84,C'WEALTH CL,01 TO 03,58.0,Standard,1967,40 years 09 months,406800.0,84 C'WEALTH CL,140084,1.30363604634114,103.799461668023,2025-05-07
202222,2025-05,QUEENSTOWN,3 ROOM,169,STIRLING RD,13 TO 15,60.0,Improved,1970,44 years 03 months,362000.0,169 STIRLING RD,140169,1.29043486528791,103.803105948762,2025-05-07
202278,2025-05,QUEENSTOWN,4 ROOM,28,GHIM MOH LINK,01 TO 03,92.0,Model A,2013,87 years,800000.0,28 GHIM MOH LINK,270028,1.30887985026284,103.784802916649,2025-05-07
202332,2025-05,QUEENSTOWN,5 ROOM,181,STIRLING RD,04 TO 06,115.0,Improved,2000,74 years 05 months,940000.0,181 STIRLING RD,140181,1.29438213198317,103.805560246494,2025-05-07
202420,2025-05,SEMBAWANG,3 ROOM,107A,CANBERRA ST,13 TO 15,67.0,Model A,2018,92 years 03 months,560000.0,107A CANBERRA ST,751107,1.449904746,103.832979240964,2025-05-07
202457,2025-05,SEMBAWANG,4 ROOM,485,ADMIRALTY LINK,13 TO 15,86.0,Model A2,2003,77 years 04 months,535000.0,485 ADMIRALTY LINK,750485,1.45642486305407,103.815857505979,2025-05-07
202781,2025-05,SEMBAWANG,5 ROOM,470,SEMBAWANG DR,04 TO 06,110.0,Improved,2000,74 years 05 months,580000.0,470 SEMBAWANG DR,750470,1.45157616201366,103.81515743452,2025-05-07
202857,2025-05,SENGKANG,2 ROOM,457B,SENGKANG WEST RD,13 TO 15,48.0,2-room,2020,94 years 05 months,415000.0,457B SENGKANG WEST RD,792457,1.39242177196708,103.870777707872,2025-05-07
202892,2025-05,SENGKANG,3 ROOM,430B,FERNVALE LINK,01 TO 03,67.0,Model A,2015,89 years 01 month,480000.0,430B FERNVALE LINK,792430,1.39390769406304,103.8782233,2025-05-07
202939,2025-05,SENGKANG,4 ROOM,336C,ANCHORVALE CRES,07 TO 09,92.0,Premium Apartment,2015,89 years 08 months,700000.0,336C ANCHORVALE CRES,543336,1.39774373171815,103.88858318745,2025-05-07
203076,2025-05,SENGKANG,4 ROOM,273D,COMPASSVALE LINK,13 TO 15,90.0,Premium Apartment,2009,83 years 04 months,820000.0,273D COMPASSVALE LINK,544273,1.38414098951186,103.894443272414,2025-05-07
203131,2025-05,SENGKANG,4 ROOM,467B,FERNVALE LINK,04 TO 06,93.0,Model A,2016,90 years 04 months,630888.0,467B FERNVALE LINK,792467,1.39807105476614,103.877933381661,2025-05-07
203160,2025-05,SENGKANG,4 ROOM,406B,FERNVALE RD,01 TO 03,90.0,Premium Apartment,2004,78 years 07 months,531000.0,406B FERNVALE RD,792406,1.38842869026139,103.87432292478,2025-05-07
203215,2025-05,SENGKANG,4 ROOM,272D,SENGKANG CTRL,07 TO 09,90.0,Premium Apartment,2009,83 years 08 months,830000.0,272D SENGKANG CTRL,544272,1.38393100526784,103.893564426812,2025-05-07
203360,2025-05,SENGKANG,5 ROOM,203A,COMPASSVALE RD,01 TO 03,110.0,Improved,2000,74 years 08 months,650000.0,203A COMPASSVALE RD,541203,1.3864692312008,103.895407767764,2025-05-07
203361,2025-05,SENGKANG,5 ROOM,254,COMPASSVALE RD,01 TO 03,115.0,Improved,2000,74 years 04 months,650000.0,254 COMPASSVALE RD,540254,1.39426775060559,103.899751739048,2025-05-07
203503,2025-05,SENGKANG,EXECUTIVE,202A,COMPASSVALE DR,07 TO 09,130.0,Apartment,2001,75 years 02 months,900000.0,202A COMPASSVALE DR,541202,1.38835985228693,103.893143243824,2025-05-07
203590,2025-05,SERANGOON,4 ROOM,228,SERANGOON AVE 4,10 TO 12,93.0,New Generation,1984,58 years 03 months,676000.0,228 SERANGOON AVE 4,550228,1.35636401495724,103.870259853394,2025-05-07
203892,2025-05,TAMPINES,4 ROOM,519C,TAMPINES CTRL 8,16 TO 18,84.0,DBSS,2014,88 years 02 months,925000.0,519C TAMPINES CTRL 8,523519,1.35621338867608,103.939960455271,2025-05-07
204024,2025-05,TAMPINES,4 ROOM,213,TAMPINES ST 23,01 TO 03,105.0,Model A,1985,58 years 11 months,605000.0,213 TAMPINES ST 23,520213,1.35479532321043,103.953935558339,2025-05-07
204100,2025-05,TAMPINES,4 ROOM,741,TAMPINES ST 72,13 TO 15,100.0,Model A,1997,71 years 08 months,660000.0,741 TAMPINES ST 72,520741,1.36001177722698,103.933043781914,2025-05-07
204123,2025-05,TAMPINES,4 ROOM,843,TAMPINES ST 83,04 TO 06,84.0,Simplified,1988,61 years 09 months,545000.0,843 TAMPINES ST 83,520843,1.35187921550809,103.934690875121,2025-05-07
204385,2025-05,TAMPINES,EXECUTIVE,889,TAMPINES ST 81,01 TO 03,142.0,Apartment,1989,62 years 10 months,928888.0,889 TAMPINES ST 81,520889,1.34991348311537,103.931049462008,2025-05-07
204471,2025-05,TOA PAYOH,3 ROOM,66,LOR 4 TOA PAYOH,10 TO 12,72.0,Standard,1969,42 years 10 months,450000.0,66 LOR 4 TOA PAYOH,310066,1.3350133256365,103.851778402294,2025-05-07
204518,2025-05,TOA PAYOH,3 ROOM,103,POTONG PASIR AVE 1,04 TO 06,74.0,Model A,1984,57 years 10 months,590000.0,103 POTONG PASIR AVE 1,350103,1.33411338676706,103.86952371664,2025-05-07
204519,2025-05,TOA PAYOH,3 ROOM,107,POTONG PASIR AVE 1,10 TO 12,74.0,Model A,1984,58 years 03 months,595000.0,107 POTONG PASIR AVE 1,350107,1.33470936894148,103.86841323904,2025-05-07
204535,2025-05,TOA PAYOH,3 ROOM,23,TOA PAYOH EAST,07 TO 09,67.0,Improved,1970,44 years 03 months,388000.0,23 TOA PAYOH EAST,310023,1.33455570085904,103.857191175608,2025-05-07
204711,2025-05,TOA PAYOH,5 ROOM,138A,LOR 1A TOA PAYOH,10 TO 12,110.0,DBSS,2012,85 years 11 months,1390000.0,138A LOR 1A TOA PAYOH,311138,1.33671098513786,103.845472945511,2025-05-07
204963,2025-05,WOODLANDS,4 ROOM,782D,WOODLANDS CRES,07 TO 09,92.0,Model A,2015,89 years 02 months,575000.0,782D WOODLANDS CRES,734782,1.44817394200904,103.803035445933,2025-05-07
204972,2025-05,WOODLANDS,4 ROOM,521,WOODLANDS DR 14,10 TO 12,102.0,Premium Apartment,2000,74 years 02 months,600000.0,521 WOODLANDS DR 14,730521,1.43371600015319,103.793326209161,2025-05-07
205103,2025-05,WOODLANDS,4 ROOM,784C,WOODLANDS RISE,01 TO 03,93.0,Model A,2018,92 years 03 months,550000.0,784C WOODLANDS RISE,733784,1.4459309722247,103.805162418466,2025-05-07
205134,2025-05,WOODLANDS,4 ROOM,335,WOODLANDS ST 32,01 TO 03,83.0,Simplified,1985,59 years 07 months,495000.0,335 WOODLANDS ST 32,730335,1.42972520117129,103.780579357988,2025-05-07
205229,2025-05,WOODLANDS,5 ROOM,531,WOODLANDS DR 14,04 TO 06,124.0,Premium Apartment,1999,73 years 04 months,718000.0,531 WOODLANDS DR 14,730531,1.43092342622429,103.792754026839,2025-05-07
205402,2025-05,WOODLANDS,EXECUTIVE,804,WOODLANDS ST 81,01 TO 03,149.0,Maisonette,1988,62 years 07 months,808000.0,804 WOODLANDS ST 81,730804,1.43997024799197,103.787772119437,2025-05-07
205427,2025-05,YISHUN,2 ROOM,677A,YISHUN RING RD,01 TO 03,47.0,Model A,2018,92 years 06 months,350000.0,677A YISHUN RING RD,761677,1.4219769108036,103.843317344784,2025-05-07
205524,2025-05,YISHUN,3 ROOM,107,YISHUN RING RD,04 TO 06,67.0,New Generation,1982,56 years 01 month,405000.0,107 YISHUN RING RD,760107,1.4322180811837,103.827520197458,2025-05-07
205525,2025-05,YISHUN,3 ROOM,813A,YISHUN RING RD,10 TO 12,67.0,Model A,2018,92 years 01 month,570000.0,813A YISHUN RING RD,761813,1.41824920330568,103.832595236905,2025-05-07
205555,2025-05,YISHUN,3 ROOM,148,YISHUN ST 11,10 TO 12,67.0,New Generation,1985,59 years 06 months,440000.0,148 YISHUN ST 11,760148,1.43195018839118,103.832337855178,2025-05-07
205674,2025-05,YISHUN,4 ROOM,348C,YISHUN AVE 11,04 TO 06,92.0,DBSS,2013,87 years 06 months,740000.0,348C YISHUN AVE 11,763348,1.42714143019714,103.84223128885,2025-05-07
205713,2025-05,YISHUN,4 ROOM,674B,YISHUN AVE 4,01 TO 03,93.0,Model A,2018,92 years 07 months,565000.0,674B YISHUN AVE 4,762674,1.42107254833692,103.843117058752,2025-05-07
205815,2025-05,YISHUN,4 ROOM,296,YISHUN ST 20,01 TO 03,93.0,Model A,2000,74 years 08 months,580000.0,296 YISHUN ST 20,760296,1.43539224579712,103.835500981499,2025-05-07
205842,2025-05,YISHUN,4 ROOM,336B,YISHUN ST 31,01 TO 03,92.0,Model A,2015,89 years 07 months,560000.0,336B YISHUN ST 31,762336,1.43137338046797,103.844331402418,2025-05-07
205924,2025-05,YISHUN,5 ROOM,432D,YISHUN AVE 1,01 TO 03,112.0,Improved,2015,89 years 05 months,648000.0,432D YISHUN AVE 1,764432,1.4197951639605,103.846174058788,2025-05-07
205996,2025-05,YISHUN,5 ROOM,501B,YISHUN ST 51,07 TO 09,112.0,Improved,2018,91 years 09 months,768000.0,501B YISHUN ST 51,762501,1.41704065966643,103.840552464198,2025-05-07
197236,2025-05,ANG MO KIO,4 ROOM,134,ANG MO KIO AVE 3,04 TO 06,98.0,New Generation,1978,52 years 05 months,555000.0,134 ANG MO KIO AVE 3,560134,1.37207665479505,103.841947733195,2025-05-08
197311,2025-05,ANG MO KIO,5 ROOM,520,ANG MO KIO AVE 5,10 TO 12,118.0,Improved,1980,54 years 04 months,838000.0,520 ANG MO KIO AVE 5,560520,1.3734054063175,103.851134219635,2025-05-08
197646,2025-05,BEDOK,4 ROOM,807C,CHAI CHEE RD,10 TO 12,93.0,Model A,2016,90 years 07 months,807000.0,807C CHAI CHEE RD,463807,1.3279979407231,103.92324860169,2025-05-08
197739,2025-05,BEDOK,5 ROOM,61,NEW UPP CHANGI RD,19 TO 21,118.0,Standard,1977,51 years 03 months,760000.0,61 NEW UPP CHANGI RD,461061,1.32275469870145,103.940776413808,2025-05-08
197751,2025-05,BEDOK,EXECUTIVE,639,BEDOK RESERVOIR RD,13 TO 15,147.0,Apartment,1993,67 years 08 months,995000.0,639 BEDOK RESERVOIR RD,410639,1.33166324925224,103.904625609758,2025-05-08
197765,2025-05,BISHAN,3 ROOM,108,BISHAN ST 12,01 TO 03,64.0,Simplified,1985,59 years 06 months,520000.0,108 BISHAN ST 12,570108,1.34671498920224,103.847398357544,2025-05-08
197794,2025-05,BISHAN,4 ROOM,130,BISHAN ST 12,07 TO 09,104.0,Model A,1986,59 years 10 months,850000.0,130 BISHAN ST 12,570130,1.34590888814549,103.851015987254,2025-05-08
198029,2025-05,BUKIT BATOK,3 ROOM,450D,BT BATOK WEST AVE 6,04 TO 06,67.0,Model A,2019,92 years 11 months,510000.0,450D BT BATOK WEST AVE 6,654450,1.35266810573153,103.74396208468,2025-05-08
198139,2025-05,BUKIT BATOK,4 ROOM,425,BT BATOK WEST AVE 2,01 TO 03,89.0,Simplified,1987,61 years 08 months,502000.0,425 BT BATOK WEST AVE 2,650425,1.3618323500025,103.745225942903,2025-05-08
198165,2025-05,BUKIT BATOK,4 ROOM,435C,BT BATOK WEST AVE 5,10 TO 12,93.0,Model A,2020,93 years 10 months,670000.0,435C BT BATOK WEST AVE 5,653435,1.35830193962809,103.739753503555,2025-05-08
198196,2025-05,BUKIT BATOK,4 ROOM,127,BT BATOK WEST AVE 6,10 TO 12,103.0,Model A,1985,58 years 09 months,580000.0,127 BT BATOK WEST AVE 6,650127,1.35185612872026,103.746076774467,2025-05-08
198284,2025-05,BUKIT BATOK,5 ROOM,296A,BT BATOK ST 22,07 TO 09,113.0,Premium Apartment,2018,91 years 11 months,880000.0,296A BT BATOK ST 22,651296,1.34409358218354,103.746409176377,2025-05-08
198329,2025-05,BUKIT BATOK,5 ROOM,450B,BT BATOK WEST AVE 6,01 TO 03,113.0,Improved,2019,93 years,690000.0,450B BT BATOK WEST AVE 6,652450,1.35235753004524,103.744395918688,2025-05-08
198357,2025-05,BUKIT BATOK,5 ROOM,440D,BT BATOK WEST AVE 8,07 TO 09,112.0,Improved,2019,92 years 11 months,805000.0,440D BT BATOK WEST AVE 8,654440,1.35513838763691,103.737031492997,2025-05-08
198412,2025-05,BUKIT MERAH,3 ROOM,12,CANTONMENT CL,07 TO 09,60.0,Model A,2003,76 years 09 months,715000.0,12 CANTONMENT CL,80012,1.27447615957187,103.84007025349,2025-05-08
198413,2025-05,BUKIT MERAH,3 ROOM,16,CANTONMENT CL,13 TO 15,60.0,Model A,2003,76 years 09 months,630000.0,16 CANTONMENT CL,80016,1.27391992612498,103.840260930929,2025-05-08
198488,2025-05,BUKIT MERAH,3 ROOM,22,TELOK BLANGAH CRES,10 TO 12,70.0,Improved,1975,49 years 02 months,395000.0,22 TELOK BLANGAH CRES,90022,1.27655921599768,103.819821916902,2025-05-08
198555,2025-05,BUKIT MERAH,4 ROOM,5,DELTA AVE,10 TO 12,91.0,New Generation,1985,59 years 07 months,783000.0,5 DELTA AVE,160005,1.29223145125728,103.827600712862,2025-05-08
198799,2025-05,BUKIT PANJANG,4 ROOM,237,BT PANJANG RING RD,07 TO 09,104.0,Model A,1988,62 years 06 months,555000.0,237 BT PANJANG RING RD,670237,1.37856756097104,103.770647361863,2025-05-08
198852,2025-05,BUKIT PANJANG,4 ROOM,167,PETIR RD,01 TO 03,101.0,Model A,1998,72 years 04 months,620000.0,167 PETIR RD,670167,1.37768707307101,103.765102401589,2025-05-08
198934,2025-05,BUKIT PANJANG,5 ROOM,171,GANGSA RD,10 TO 12,121.0,Improved,1997,71 years 08 months,845000.0,171 GANGSA RD,670171,1.37896953663304,103.766375003722,2025-05-08
199033,2025-05,BUKIT TIMAH,4 ROOM,4,TOH YI DR,13 TO 15,104.0,Model A,1988,62 years 04 months,920342.0,4 TOH YI DR,590004,1.3385120672333,103.774569823527,2025-05-08
199158,2025-05,CHOA CHU KANG,4 ROOM,412,CHOA CHU KANG AVE 3,01 TO 03,104.0,Model A,1992,66 years 03 months,530000.0,412 CHOA CHU KANG AVE 3,680412,1.38180972459048,103.742381573149,2025-05-08
199226,2025-05,CHOA CHU KANG,4 ROOM,686B,CHOA CHU KANG CRES,01 TO 03,91.0,Model A,2002,76 years 06 months,515000.0,686B CHOA CHU KANG CRES,682686,1.40466479917824,103.748504488379,2025-05-08
199247,2025-05,CHOA CHU KANG,4 ROOM,688A,CHOA CHU KANG DR,04 TO 06,91.0,Model A,2002,75 years 11 months,490000.0,688A CHOA CHU KANG DR,681688,1.40396387456119,103.750566306243,2025-05-08
199289,2025-05,CHOA CHU KANG,4 ROOM,804A,KEAT HONG CL,07 TO 09,93.0,Model A,2017,91 years 01 month,585000.0,804A KEAT HONG CL,681804,1.37367233098073,103.742000829882,2025-05-08
199367,2025-05,CHOA CHU KANG,5 ROOM,670,CHOA CHU KANG CRES,13 TO 15,124.0,Premium Apartment,1999,73 years 08 months,675000.0,670 CHOA CHU KANG CRES,680670,1.40297792988038,103.747753040275,2025-05-08
199420,2025-05,CHOA CHU KANG,5 ROOM,801D,KEAT HONG CL,13 TO 15,113.0,Improved,2018,91 years 10 months,735000.0,801D KEAT HONG CL,684801,1.37513575657307,103.743031630831,2025-05-08
199654,2025-05,GEYLANG,2 ROOM,32,BALAM RD,04 TO 06,46.0,Standard,1973,47 years 03 months,305000.0,32 BALAM RD,370032,1.3293933046895,103.886977511986,2025-05-08
199863,2025-05,GEYLANG,EXECUTIVE,130,GEYLANG EAST AVE 1,10 TO 12,155.0,Maisonette,1987,61 years 01 month,1100000.0,130 GEYLANG EAST AVE 1,380130,1.31685877572509,103.887761159389,2025-05-08
200036,2025-05,HOUGANG,4 ROOM,998A,BUANGKOK CRES,10 TO 12,93.0,Model A,2019,93 years 08 months,688000.0,998A BUANGKOK CRES,531998,1.38375782968293,103.880172193688,2025-05-08
200061,2025-05,HOUGANG,4 ROOM,994A,BUANGKOK LINK,10 TO 12,93.0,Model A,2021,94 years 09 months,686000.0,994A BUANGKOK LINK,531994,1.38562199941938,103.883768015852,2025-05-08
200100,2025-05,HOUGANG,4 ROOM,361,HOUGANG AVE 5,04 TO 06,104.0,Model A,1992,66 years 06 months,675000.0,361 HOUGANG AVE 5,530361,1.36924226816817,103.895970405216,2025-05-08
200303,2025-05,HOUGANG,EXECUTIVE,634,HOUGANG AVE 8,10 TO 12,148.0,Maisonette,1987,61 years 06 months,988888.0,634 HOUGANG AVE 8,530634,1.37007302987192,103.878439386184,2025-05-08
200311,2025-05,HOUGANG,EXECUTIVE,562,HOUGANG ST 51,07 TO 09,148.0,Maisonette,1992,66 years 06 months,1048888.0,562 HOUGANG ST 51,530562,1.38093220261348,103.889121423349,2025-05-08
200431,2025-05,JURONG EAST,4 ROOM,21,TEBAN GDNS RD,37 TO 39,92.0,Model A,2013,87 years 05 months,685000.0,21 TEBAN GDNS RD,600021,1.32368064923943,103.739156156511,2025-05-08
200500,2025-05,JURONG WEST,2 ROOM,140C,CORPORATION DR,16 TO 18,47.0,Model A,2019,93 years 02 months,370000.0,140C CORPORATION DR,613140,1.32754362846391,103.724285977296,2025-05-08
200578,2025-05,JURONG WEST,3 ROOM,111,HO CHING RD,04 TO 06,68.0,Improved,1970,44 years,368000.0,111 HO CHING RD,610111,1.33388939555115,103.723306118882,2025-05-08
200579,2025-05,JURONG WEST,3 ROOM,119,HO CHING RD,01 TO 03,76.0,Improved,1972,45 years 10 months,335000.0,119 HO CHING RD,610119,1.33529905914454,103.724712974749,2025-05-08
200651,2025-05,JURONG WEST,3 ROOM,138C,YUAN CHING RD,19 TO 21,67.0,DBSS,2014,88 years 05 months,580000.0,138C YUAN CHING RD,613138,1.32843797727643,103.723795893377,2025-05-08
200685,2025-05,JURONG WEST,4 ROOM,430,JURONG WEST AVE 1,07 TO 09,103.0,Model A,1985,58 years 09 months,510000.0,430 JURONG WEST AVE 1,640430,1.3519543113972,103.725622636589,2025-05-08
200704,2025-05,JURONG WEST,4 ROOM,275B,JURONG WEST ST 25,07 TO 09,90.0,Model A,2002,75 years 09 months,500000.0,275B JURONG WEST ST 25,642275,1.35288372552565,103.702480000176,2025-05-08
200774,2025-05,JURONG WEST,4 ROOM,668D,JURONG WEST ST 64,01 TO 03,90.0,Model A2,2000,74 years 03 months,535000.0,668D JURONG WEST ST 64,644668,1.34125787225763,103.703000933184,2025-05-08
200822,2025-05,JURONG WEST,4 ROOM,826,JURONG WEST ST 81,07 TO 09,104.0,Model A,1990,64 years,536000.0,826 JURONG WEST ST 81,640826,1.34604529493384,103.694423564846,2025-05-08
200867,2025-05,JURONG WEST,4 ROOM,361,YUNG AN RD,01 TO 03,106.0,Model A,1995,69 years 07 months,520000.0,361 YUNG AN RD,610361,1.33580354461171,103.720313655007,2025-05-08
201103,2025-05,JURONG WEST,EXECUTIVE,830,JURONG WEST ST 81,01 TO 03,146.0,Apartment,1993,67 years 02 months,685000.0,830 JURONG WEST ST 81,640830,1.34533160962097,103.693436582709,2025-05-08
201144,2025-05,KALLANG/WHAMPOA,3 ROOM,68,GEYLANG BAHRU,04 TO 06,65.0,Improved,1974,48 years 03 months,400000.0,68 GEYLANG BAHRU,330068,1.32195385488883,103.869843391813,2025-05-08
201175,2025-05,KALLANG/WHAMPOA,3 ROOM,14,KG ARANG RD,10 TO 12,103.0,New Generation,1984,58 years 04 months,800000.0,14 KG ARANG RD,431014,1.30016459105,103.884228450233,2025-05-08
201236,2025-05,KALLANG/WHAMPOA,4 ROOM,10B,BENDEMEER RD,25 TO 27,93.0,Model A,2017,91 years 08 months,1118888.0,10B BENDEMEER RD,332010,1.31547715332072,103.860312930116,2025-05-08
201257,2025-05,KALLANG/WHAMPOA,4 ROOM,30,JLN BAHAGIA,04 TO 06,84.0,Simplified,1987,61 years 04 months,560000.0,30 JLN BAHAGIA,320030,1.32574105577942,103.858108254641,2025-05-08
201280,2025-05,KALLANG/WHAMPOA,4 ROOM,78,LOR LIMAU,13 TO 15,93.0,Model A,2018,92 years 02 months,918000.0,78 LOR LIMAU,320078,1.32487617789478,103.855541044499,2025-05-08
201470,2025-05,PASIR RIS,3 ROOM,527B,PASIR RIS ST 51,04 TO 06,68.0,Model A,2015,89 years 03 months,570000.0,527B PASIR RIS ST 51,512527,1.36899453114432,103.947710069014,2025-05-08
201525,2025-05,PASIR RIS,4 ROOM,526C,PASIR RIS ST 51,04 TO 06,93.0,Model A,2015,89 years 03 months,750000.0,526C PASIR RIS ST 51,513526,1.36829430551953,103.947266008776,2025-05-08
201773,2025-05,PUNGGOL,4 ROOM,682B,EDGEDALE PLAINS,10 TO 12,93.0,Premium Apartment,2018,92 years 04 months,750000.0,682B EDGEDALE PLAINS,822682,1.40341173051587,103.915952020104,2025-05-08
201864,2025-05,PUNGGOL,4 ROOM,619D,PUNGGOL DR,04 TO 06,93.0,Premium Apartment,2013,87 years 05 months,660000.0,619D PUNGGOL DR,824619,1.40211730418562,103.911081490497,2025-05-08
201982,2025-05,PUNGGOL,4 ROOM,260B,PUNGGOL WAY,13 TO 15,93.0,Model A,2016,90 years 02 months,685000.0,260B PUNGGOL WAY,822260,1.40488489257322,103.896351333072,2025-05-08
202108,2025-05,PUNGGOL,5 ROOM,128A,PUNGGOL FIELD WALK,07 TO 09,110.0,Improved,2003,77 years 03 months,666800.0,128A PUNGGOL FIELD WALK,821128,1.39354226277371,103.912428475975,2025-05-08
202165,2025-05,PUNGGOL,5 ROOM,217A,SUMANG WALK,16 TO 18,112.0,Improved,2017,91 years 03 months,838888.0,217A SUMANG WALK,821217,1.4029859177206,103.895020804883,2025-05-08
202166,2025-05,PUNGGOL,5 ROOM,323A,SUMANG WALK,22 TO 24,113.0,Premium Apartment,2020,93 years 09 months,880000.0,323A SUMANG WALK,821323,1.41239137117199,103.898233670211,2025-05-08
202171,2025-05,PUNGGOL,EXECUTIVE,183,EDGEFIELD PLAINS,04 TO 06,128.0,Premium Apartment,2003,77 years 07 months,818000.0,183 EDGEFIELD PLAINS,820183,1.39881003085177,103.909845612504,2025-05-08
202200,2025-05,QUEENSTOWN,3 ROOM,99,C'WEALTH CRES,07 TO 09,55.0,Standard,1970,44 years 02 months,360000.0,99 C'WEALTH CRES,140099,1.30743412917943,103.801143772389,2025-05-08
202350,2025-05,QUEENSTOWN,4 ROOM,3,HOLLAND CL,10 TO 12,105.0,Model A,1998,72 years 07 months,1120000.0,3 HOLLAND CL,271003,1.30820871253395,103.796638881502,2025-05-08
202360,2025-05,QUEENSTOWN,4 ROOM,168A,QUEENSWAY,01 TO 03,84.0,Improved,1974,48 years 02 months,455000.0,168A QUEENSWAY,140168,1.28928555929927,103.803401515145,2025-05-08
202382,2025-05,QUEENSTOWN,4 ROOM,91,TANGLIN HALT RD,31 TO 33,90.0,Model A,2008,82 years 04 months,1018000.0,91 TANGLIN HALT RD,142091,1.30072792288033,103.799417284922,2025-05-08
202409,2025-05,QUEENSTOWN,EXECUTIVE,150,MEI LING ST,04 TO 06,142.0,Apartment,1995,69 years 06 months,1320500.0,150 MEI LING ST,141150,1.29490307854693,103.803699298575,2025-05-08
202553,2025-05,SEMBAWANG,4 ROOM,117A,CANBERRA CRES,10 TO 12,92.0,Model A,2020,94 years 01 month,815000.0,117A CANBERRA CRES,751117,1.44497965573574,103.830518633862,2025-05-08
202833,2025-05,SEMBAWANG,5 ROOM,108A,CANBERRA WALK,10 TO 12,113.0,Improved,2018,92 years 01 month,800000.0,108A CANBERRA WALK,751108,1.44776056626366,103.831274677849,2025-05-08
202974,2025-05,SENGKANG,3 ROOM,441C,FERNVALE RD,16 TO 18,69.0,Model A,2012,85 years 10 months,540000.0,441C FERNVALE RD,793441,1.39220060795463,103.874778712417,2025-05-08
202979,2025-05,SENGKANG,3 ROOM,473A,FERNVALE ST,13 TO 15,68.0,Model A,2016,90 years 05 months,570888.0,473A FERNVALE ST,791473,1.39785974876811,103.881232764244,2025-05-08
203045,2025-05,SENGKANG,4 ROOM,356B,ANCHORVALE LANE,07 TO 09,93.0,Model A,2021,94 years 10 months,675000.0,356B ANCHORVALE LANE,542356,1.39390663331416,103.884506817902,2025-05-08
203078,2025-05,SENGKANG,4 ROOM,331B,ANCHORVALE ST,07 TO 09,92.0,Model A,2015,89 years 04 months,688000.0,331B ANCHORVALE ST,542331,1.39567244030632,103.890125430899,2025-05-08
203120,2025-05,SENGKANG,4 ROOM,201A,COMPASSVALE DR,01 TO 03,90.0,Model A,2001,75 years 04 months,560000.0,201A COMPASSVALE DR,541201,1.38900121148939,103.892763307705,2025-05-08
203281,2025-05,SENGKANG,4 ROOM,195,RIVERVALE DR,13 TO 15,91.0,Model A,2001,75 years 04 months,605000.0,195 RIVERVALE DR,540195,1.39282417800809,103.902400185088,2025-05-08
203285,2025-05,SENGKANG,4 ROOM,127,RIVERVALE ST,07 TO 09,100.0,Model A,1999,73 years 03 months,570000.0,127 RIVERVALE ST,540127,1.39059360318199,103.902213493166,2025-05-08
203400,2025-05,SENGKANG,5 ROOM,307D,ANCHORVALE RD,01 TO 03,110.0,Improved,2001,75 years 07 months,625000.0,307D ANCHORVALE RD,544307,1.39029890072186,103.886489261901,2025-05-08
203406,2025-05,SENGKANG,5 ROOM,274B,COMPASSVALE BOW,13 TO 15,113.0,Improved,2017,91 years 07 months,930000.0,274B COMPASSVALE BOW,542274,1.38192277086883,103.890875719274,2025-05-08
203476,2025-05,SENGKANG,5 ROOM,416B,FERNVALE LINK,16 TO 18,113.0,Improved,2016,89 years 09 months,820000.0,416B FERNVALE LINK,792416,1.39048519034443,103.880509545623,2025-05-08
203477,2025-05,SENGKANG,5 ROOM,430A,FERNVALE LINK,16 TO 18,112.0,Improved,2015,89 years 01 month,772888.0,430A FERNVALE LINK,791430,1.39387016239186,103.878517201425,2025-05-08
203718,2025-05,SERANGOON,5 ROOM,116,SERANGOON NTH AVE 1,10 TO 12,121.0,Improved,1986,59 years 09 months,728000.0,116 SERANGOON NTH AVE 1,550116,1.3684875699447,103.871588685744,2025-05-08
204214,2025-05,TAMPINES,4 ROOM,855,TAMPINES ST 83,01 TO 03,84.0,Simplified,1987,61 years 02 months,545000.0,855 TAMPINES ST 83,520855,1.35358250009189,103.935299480466,2025-05-08
204218,2025-05,TAMPINES,4 ROOM,871C,TAMPINES ST 86,16 TO 18,94.0,Model A,2017,90 years 10 months,763000.0,871C TAMPINES ST 86,523871,1.35670900289357,103.931385349285,2025-05-08
204550,2025-05,TOA PAYOH,3 ROOM,130B,LOR 1 TOA PAYOH,16 TO 18,68.0,Model A,2018,92 years 04 months,800000.0,130B LOR 1 TOA PAYOH,312130,1.33737735210716,103.842656049195,2025-05-08
204613,2025-05,TOA PAYOH,3 ROOM,104,POTONG PASIR AVE 1,10 TO 12,74.0,Model A,1984,58 years 07 months,595000.0,104 POTONG PASIR AVE 1,350104,1.3343391689203,103.869158899303,2025-05-08
204775,2025-05,TOA PAYOH,4 ROOM,262,TOA PAYOH EAST,25 TO 27,93.0,Model A,2019,93 years 08 months,1080000.0,262 TOA PAYOH EAST,310262,1.33320440397645,103.855618262704,2025-05-08
204815,2025-05,TOA PAYOH,5 ROOM,147,LOR 2 TOA PAYOH,22 TO 24,110.0,Improved,2006,79 years 09 months,1260000.0,147 LOR 2 TOA PAYOH,310147,1.33454683171677,103.845077697814,2025-05-08
204821,2025-05,TOA PAYOH,5 ROOM,82A,LOR 4 TOA PAYOH,22 TO 24,122.0,Improved,1996,70 years 05 months,1228000.0,82A LOR 4 TOA PAYOH,311082,1.33597952666562,103.848953918024,2025-05-08
204884,2025-05,WOODLANDS,3 ROOM,6,MARSILING DR,10 TO 12,76.0,Improved,1976,49 years 09 months,368000.0,6 MARSILING DR,730006,1.44207297644105,103.776353990531,2025-05-08
204949,2025-05,WOODLANDS,3 ROOM,185C,WOODLANDS ST 13,07 TO 09,68.0,Model A,2019,93 years 06 months,520000.0,185C WOODLANDS ST 13,733185,1.43588503875867,103.776598268666,2025-05-08
205073,2025-05,WOODLANDS,4 ROOM,532,WOODLANDS DR 14,10 TO 12,105.0,Premium Apartment,1999,73 years 04 months,590000.0,532 WOODLANDS DR 14,730532,1.43080005523895,103.792373236242,2025-05-08
205130,2025-05,WOODLANDS,4 ROOM,620,WOODLANDS DR 52,07 TO 09,96.0,Model A2,1998,72 years 03 months,540000.0,620 WOODLANDS DR 52,730620,1.43342596098074,103.798861660947,2025-05-08
205230,2025-05,WOODLANDS,4 ROOM,183C,WOODLANDS ST 13,10 TO 12,93.0,Model A,2019,93 years 06 months,700000.0,183C WOODLANDS ST 13,733183,1.43465687984813,103.776726754884,2025-05-08
205253,2025-05,WOODLANDS,4 ROOM,428,WOODLANDS ST 41,07 TO 09,84.0,Simplified,1996,70 years 04 months,478888.0,428 WOODLANDS ST 41,730428,1.42698292390675,103.772578475525,2025-05-08
205265,2025-05,WOODLANDS,4 ROOM,843,WOODLANDS ST 82,01 TO 03,84.0,Simplified,1994,68 years 02 months,455000.0,843 WOODLANDS ST 82,730843,1.44314929042286,103.79305512541,2025-05-08
205279,2025-05,WOODLANDS,5 ROOM,371,WOODLANDS AVE 1,01 TO 03,121.0,Improved,1996,70 years 07 months,665000.0,371 WOODLANDS AVE 1,730371,1.43228225812656,103.786714412457,2025-05-08
205406,2025-05,WOODLANDS,5 ROOM,687B,WOODLANDS DR 75,10 TO 12,114.0,Premium Apartment,2003,76 years 10 months,615000.0,687B WOODLANDS DR 75,732687,1.44188539470704,103.807161942037,2025-05-08
205592,2025-05,YISHUN,3 ROOM,284,YISHUN AVE 6,07 TO 09,74.0,Model A,1987,61 years 04 months,400000.0,284 YISHUN AVE 6,760284,1.43969859742694,103.838828469463,2025-05-08
205664,2025-05,YISHUN,3 ROOM,133,YISHUN ST 11,01 TO 03,68.0,New Generation,1984,58 years 06 months,402500.0,133 YISHUN ST 11,760133,1.43255737199893,103.830784110499,2025-05-08
205784,2025-05,YISHUN,4 ROOM,426B,YISHUN AVE 11,10 TO 12,92.0,Model A,2015,88 years 11 months,595000.0,426B YISHUN AVE 11,762426,1.4227214845963,103.846366899948,2025-05-08
205869,2025-05,YISHUN,4 ROOM,321,YISHUN CTRL,10 TO 12,104.0,Model A,1988,61 years 10 months,578000.0,321 YISHUN CTRL,760321,1.42887961053535,103.841528588879,2025-05-08
205954,2025-05,YISHUN,4 ROOM,334A,YISHUN ST 31,13 TO 15,92.0,Model A,2015,89 years 07 months,610000.0,334A YISHUN ST 31,761334,1.43290624174601,103.844695383831,2025-05-08
206001,2025-05,YISHUN,4 ROOM,640,YISHUN ST 61,01 TO 03,91.0,New Generation,1992,66 years 02 months,555000.0,640 YISHUN ST 61,760640,1.42106180523936,103.838806521089,2025-05-08
206033,2025-05,YISHUN,4 ROOM,879,YISHUN ST 81,04 TO 06,84.0,Simplified,1987,61 years 06 months,500000.0,879 YISHUN ST 81,760879,1.41444167860568,103.83611779226,2025-05-08
206144,2025-05,YISHUN,MULTI-GENERATION,632,YISHUN ST 61,04 TO 06,147.0,Multi Generation,1987,61 years 06 months,945000.0,632 YISHUN ST 61,760632,1.41856736783462,103.839186937262,2025-05-08
196984,2025-05,ANG MO KIO,2 ROOM,406,ANG MO KIO AVE 10,04 TO 06,44.0,Improved,1979,53 years 01 month,340000.0,406 ANG MO KIO AVE 10,560406,1.36200453938712,103.853879910407,2025-05-09
197008,2025-05,ANG MO KIO,3 ROOM,307C,ANG MO KIO AVE 1,07 TO 09,70.0,Model A,2012,86 years 05 months,585000.0,307C ANG MO KIO AVE 1,563307,1.36556100435161,103.845169497182,2025-05-09
197061,2025-05,ANG MO KIO,3 ROOM,557,ANG MO KIO AVE 10,01 TO 03,68.0,New Generation,1980,53 years 09 months,395000.0,557 ANG MO KIO AVE 10,560557,1.3716257020332,103.857736107527,2025-05-09
197167,2025-05,ANG MO KIO,3 ROOM,151,ANG MO KIO AVE 5,04 TO 06,68.0,New Generation,1981,54 years 10 months,402000.0,151 ANG MO KIO AVE 5,560151,1.37671105271454,103.841168190659,2025-05-09
197172,2025-05,ANG MO KIO,3 ROOM,637,ANG MO KIO AVE 6,07 TO 09,82.0,New Generation,1980,54 years 05 months,475000.0,637 ANG MO KIO AVE 6,560637,1.38036187235317,103.842334616577,2025-05-09
197315,2025-05,ANG MO KIO,5 ROOM,111,ANG MO KIO AVE 4,10 TO 12,117.0,Improved,1978,52 years 04 months,800000.0,111 ANG MO KIO AVE 4,560111,1.37085148985913,103.837298157413,2025-05-09
197507,2025-05,BEDOK,3 ROOM,59,CHAI CHEE RD,07 TO 09,80.0,Model A,1984,57 years 09 months,439888.0,59 CHAI CHEE RD,460059,1.32488916644196,103.920246730461,2025-05-09
197713,2025-05,BEDOK,5 ROOM,710,BEDOK RESERVOIR RD,10 TO 12,125.0,Improved,1980,54 years 07 months,800000.0,710 BEDOK RESERVOIR RD,470710,1.3355737307958,103.923820023145,2025-05-09
197862,2025-05,BISHAN,5 ROOM,168,BISHAN ST 13,07 TO 09,121.0,Improved,1986,60 years 07 months,950000.0,168 BISHAN ST 13,570168,1.3473187037658,103.854162127782,2025-05-09
197877,2025-05,BISHAN,5 ROOM,303,SHUNFU RD,10 TO 12,121.0,Improved,1985,58 years 11 months,945000.0,303 SHUNFU RD,570303,1.34976942860988,103.83847650474,2025-05-09
198178,2025-05,BUKIT BATOK,4 ROOM,395,BT BATOK WEST AVE 5,13 TO 15,92.0,Model A,2004,78 years 05 months,612000.0,395 BT BATOK WEST AVE 5,650395,1.36631689866947,103.752287629198,2025-05-09
198257,2025-05,BUKIT BATOK,4 ROOM,442A,BT BATOK WEST AVE 8,07 TO 09,92.0,Model A,2019,92 years 11 months,650000.0,442A BT BATOK WEST AVE 8,651442,1.35660480719736,103.738628185843,2025-05-09
198292,2025-05,BUKIT BATOK,5 ROOM,293C,BT BATOK ST 21,28 TO 30,113.0,Improved,2019,92 years 09 months,960000.0,293C BT BATOK ST 21,653293,1.34537093479434,103.75498944775,2025-05-09
198311,2025-05,BUKIT BATOK,5 ROOM,348,BT BATOK ST 34,01 TO 03,122.0,Improved,1987,60 years 10 months,613000.0,348 BT BATOK ST 34,650348,1.36213530305616,103.750617374428,2025-05-09
198374,2025-05,BUKIT BATOK,5 ROOM,443C,BT BATOK WEST AVE 8,10 TO 12,112.0,Improved,2019,92 years 11 months,823000.0,443C BT BATOK WEST AVE 8,653443,1.35557897178099,103.737833820151,2025-05-09
198645,2025-05,BUKIT MERAH,4 ROOM,119C,KIM TIAN RD,13 TO 15,92.0,Model A,2003,77 years 02 months,915000.0,119C KIM TIAN RD,163119,1.28148915140735,103.827671951512,2025-05-09
198696,2025-05,BUKIT MERAH,4 ROOM,90A,TELOK BLANGAH ST 31,28 TO 30,93.0,Model A,2018,92 years 08 months,1130000.0,90A TELOK BLANGAH ST 31,101090,1.27773457800288,103.807093263136,2025-05-09
198820,2025-05,BUKIT PANJANG,4 ROOM,431,BT PANJANG RING RD,10 TO 12,84.0,Simplified,1988,62 years 08 months,500000.0,431 BT PANJANG RING RD,670431,1.38602501192541,103.770847695844,2025-05-09
198944,2025-05,BUKIT PANJANG,5 ROOM,243,BT PANJANG RING RD,07 TO 09,122.0,Improved,1988,62 years 06 months,670000.0,243 BT PANJANG RING RD,670243,1.3805207559387,103.771291134609,2025-05-09
199118,2025-05,CENTRAL AREA,4 ROOM,1C,CANTONMENT RD,16 TO 18,96.0,Type S1,2011,84 years 09 months,1340000.0,1C CANTONMENT RD,85301,1.27744909387079,103.841666679651,2025-05-09
199119,2025-05,CENTRAL AREA,4 ROOM,1C,CANTONMENT RD,43 TO 45,93.0,Type S1,2011,84 years 09 months,1415688.0,1C CANTONMENT RD,85301,1.27744909387079,103.841666679651,2025-05-09
199251,2025-05,CHOA CHU KANG,4 ROOM,667,CHOA CHU KANG CRES,10 TO 12,103.0,Model A,1999,73 years 02 months,580008.0,667 CHOA CHU KANG CRES,680667,1.40258973962651,103.749629714805,2025-05-09
199362,2025-05,CHOA CHU KANG,5 ROOM,812B,CHOA CHU KANG AVE 7,07 TO 09,113.0,Improved,2017,91 years 07 months,608880.0,812B CHOA CHU KANG AVE 7,682812,1.37298072773967,103.746249268178,2025-05-09
199437,2025-05,CHOA CHU KANG,5 ROOM,155,JLN TECK WHYE,10 TO 12,121.0,Improved,1997,71 years 08 months,718000.0,155 JLN TECK WHYE,680155,1.37893693677123,103.75716507033,2025-05-09
199643,2025-05,CLEMENTI,4 ROOM,709,CLEMENTI WEST ST 2,10 TO 12,91.0,New Generation,1980,54 years 03 months,558000.0,709 CLEMENTI WEST ST 2,120709,1.30533046157853,103.762003588469,2025-05-09
199931,2025-05,HOUGANG,3 ROOM,993B,BUANGKOK LINK,13 TO 15,69.0,Model A,2021,94 years 09 months,540888.0,993B BUANGKOK LINK,532993,1.38507802286744,103.882690382052,2025-05-09
199972,2025-05,HOUGANG,3 ROOM,682,HOUGANG AVE 4,04 TO 06,64.0,Simplified,1989,63 years 03 months,428000.0,682 HOUGANG AVE 4,530682,1.37361830380888,103.885748856217,2025-05-09
199989,2025-05,HOUGANG,3 ROOM,321,HOUGANG AVE 5,04 TO 06,67.0,New Generation,1983,56 years 10 months,422000.0,321 HOUGANG AVE 5,530321,1.36710131174973,103.898278016767,2025-05-09
200169,2025-05,HOUGANG,4 ROOM,614,HOUGANG AVE 8,01 TO 03,84.0,Simplified,1986,59 years 09 months,502424.0,614 HOUGANG AVE 8,530614,1.36914010573801,103.8846969292,2025-05-09
200282,2025-05,HOUGANG,5 ROOM,643,HOUGANG AVE 8,16 TO 18,120.0,Improved,1987,61 years 04 months,800088.0,643 HOUGANG AVE 8,530643,1.37154552599116,103.880619942257,2025-05-09
200320,2025-05,HOUGANG,5 ROOM,465,UPP SERANGOON RD,07 TO 09,124.0,Improved,1992,66 years 06 months,835000.0,465 UPP SERANGOON RD,530465,1.37190788342411,103.897012927498,2025-05-09
200353,2025-05,JURONG EAST,2 ROOM,371,JURONG EAST ST 32,10 TO 12,44.0,Model A,2014,87 years 10 months,350000.0,371 JURONG EAST ST 32,600371,1.3483083591294,103.731919903016,2025-05-09
200405,2025-05,JURONG EAST,3 ROOM,371,JURONG EAST ST 32,07 TO 09,64.0,Model A,2014,87 years 10 months,470000.0,371 JURONG EAST ST 32,600371,1.3483083591294,103.731919903016,2025-05-09
200443,2025-05,JURONG EAST,4 ROOM,257,JURONG EAST ST 24,01 TO 03,97.0,New Generation,1983,56 years 09 months,485000.0,257 JURONG EAST ST 24,600257,1.34451804267549,103.738630332612,2025-05-09
200501,2025-05,JURONG EAST,5 ROOM,403,PANDAN GDNS,10 TO 12,129.0,Standard,1979,53 years,588888.0,403 PANDAN GDNS,600403,1.32032964075934,103.74939013157,2025-05-09
200513,2025-05,JURONG EAST,5 ROOM,277,TOH GUAN RD,04 TO 06,120.0,Improved,1998,72 years 06 months,792888.0,277 TOH GUAN RD,600277,1.34131892672099,103.74672572293,2025-05-09
200514,2025-05,JURONG EAST,5 ROOM,278,TOH GUAN RD,10 TO 12,120.0,Improved,1998,72 years 07 months,740000.0,278 TOH GUAN RD,600278,1.34090157770535,103.746437082019,2025-05-09
200522,2025-05,JURONG EAST,EXECUTIVE,322A,JURONG EAST ST 31,07 TO 09,149.0,Maisonette,1985,59 years 01 month,820000.0,322A JURONG EAST ST 31,601322,1.34767058736295,103.728931059064,2025-05-09
200543,2025-05,JURONG WEST,2 ROOM,560A,JURONG WEST ST 42,10 TO 12,47.0,Model A,2018,91 years 10 months,367000.0,560A JURONG WEST ST 42,641560,1.3533579932237,103.719829055981,2025-05-09
